~Version Information
 VERS.                2.00:   CWLS log ASCII Standard -VERSION 2.00
 WRAP.                  NO:   One line per frame      
~Well Information Block
#MNEM.UNIT                  Well Data                   Data Description
#----.----   ----------------------------------------   -------------------------------
 STRT.M                                      489.9660 : Starting Depth
 STOP.M                                      861.9744 : Ending Depth
 STEP.M                                        0.1524 : Level Spacing
 NULL.                                      -999.2500 : Absent Value
 COMP.       WINTERSHALL                              : Company
 WELL.       WIN.Nq.AF.WW-1                           : Well
 FLD .       AGUADA FEDERAL                           : Field
 LOC .                                                : Location
 CNTY.                                                : County
 STAT.                                                : State
 CTRY.       USA                                      : Country
 SRVC.       Baker Hughes                             : Service Company
 DATE.       24-Oct-2018                              : Log Date
 API .                                                : API Number
 UWI .                                                : Unique Well ID
~Curve Information Block
#MNEM    .UNIT        API Codes     Curve Description
#--------.--------   ------------   ---------------------------------------------------
 DEPT    .M          99 995 99  1 : Depth
 BIT     .IN         70 282  1  1 : Bit size
 BVOL    .M3         70 995 99  1 : Borehole volume
 CAL     .IN         70 280 99  1 : Caliper
 CVOL    .M3         70 995 99  1 : Cement volume
 DT24QI  .US/F       60 520 99  1 : Slowness over 24-inch interval
 M2R1    .OHMM        8 120 10  1 : Vertical 2-foot resolution matched resistivity, 10-inch DOI
 M2R2    .OHMM        8 120 20  1 : Vertical 2-foot resolution matched resistivity, 20-inch DOI
 M2R3    .OHMM        8 120 30  1 : Vertical 2-foot resolution matched resistivity, 30-inch DOI
 M2R6    .OHMM        8 120 60  1 : Vertical 2-foot resolution matched resistivity, 60-inch DOI
 M2R9    .OHMM        8 120 90  1 : Vertical 2-foot resolution matched resistivity, 90-inch DOI
 SP      .MV          1  10  1  1 : Spontaneous Potential
 TEN     .LBF        99 635 99  1 : Differential tension
 TTEN    .LBF        99 635 99  1 : Total tension
 TTQI    .MS         60 529 99  1 : Integrated traveltime from acoustic slowness
 GR      .GAPI       30 310  1  1 : Gamma ray
~Parameter Information Block
#MNEM.UNIT               Parameter Value                Parameter Description
#----.----   ----------------------------------------   -------------------------------
 LATI.DEG    0.0000                                   : Latitude
 LONG.DEG    0.0000                                   : Longitude
#  Curve Data
~A  DEPT        BIT         BVOL        CAL         CVOL        DT24QI      M2R1        M2R2        M2R3        M2R6        M2R9        SP          TEN         TTEN        TTQI        GR        
# ...
    681.9900      8.7500      6.5427      8.5598      2.2499    102.0543     12.1558     14.0178     14.6191     14.4823     14.2508    116.1510    -16.8099   1524.9346     56.1593     75.3114
    682.1424      8.7500      6.5370      8.5654      2.2480    101.6466     12.4078     14.4392     15.0857     14.9530     14.7162    115.3170    -16.5514   1525.3367     56.1083     77.1696
    682.2948      8.7500      6.5314      8.5710      2.2461    102.1555     12.5749     14.7300     15.4101     15.2816     15.0432    114.6303    -17.3714   1524.6633     56.0575     80.0853
    682.4472      8.7500      6.5257      8.5708      2.2442    103.6316     12.5619     14.7516     15.4384     15.3104     15.0742    114.4404    -23.8668   1518.3459     56.0064     82.8865
    682.5996      8.7500      6.5200      8.5686      2.2423    105.1501     12.5211     14.6646     15.3316     15.1951     14.9610    114.7228    -29.8038   1512.6462     55.9546     84.6411
    682.7520      8.7500      6.5143      8.5686      2.2404    105.9605     12.6612     14.7217     15.3534     15.1962     14.9599    115.1120    -30.7575   1511.9585     55.9020     82.8378
    682.9044      8.7500      6.5086      8.5710      2.2385    106.0865     12.9577     14.9165     15.5037     15.3151     15.0721    115.3200    -29.3637   1513.6099     55.8490     78.1722
    683.0568      8.7500      6.5029      8.5737      2.2366    105.7455     13.1955     15.0358     15.5751     15.3514     15.1010    115.3321    -26.9683   1516.2429     55.7960     74.7252
    683.2092      8.7500      6.4973      8.5726      2.2347    105.4237     13.2508     14.9833     15.4853     15.2310     14.9761    115.2419    -24.0104   1519.4167     55.7431     74.7292
    683.3616      8.7500      6.4916      8.5695      2.2328    104.9854     13.1474     14.8173     15.3048     15.0302     14.7755    115.1049    -23.0251   1520.6006     55.6904     76.2557
    683.5140      8.7500      6.4859      8.5691      2.2309    104.4049     12.9629     14.6254     15.1222     14.8398     14.5909    114.9873    -23.1243   1520.6917     55.6379     77.9955
    683.6664      8.7500      6.4802      8.5704      2.2290    103.8880     12.7366     14.4276     14.9461     14.6682     14.4312    115.0067    -21.6601   1522.3352     55.5857     78.3005
    683.8188      8.7500      6.4746      8.5691      2.2271    104.3321     12.4847     14.2048     14.7417     14.4787     14.2592    115.1998    -22.0886   1522.0784     55.5337     77.4224
    683.9712      8.7500      6.4689      8.5706      2.2253    105.7719     12.3128     14.0447     14.5900     14.3472     14.1480    115.4585    -25.0349   1519.3179     55.4816     77.1648
    684.1236      8.7500      6.4633      8.5774      2.2234    107.0546     12.2933     14.0217     14.5692     14.3472     14.1680    115.6740    -27.1934   1517.3774     55.4287     78.2221
    684.2760      8.7500      6.4576      8.5834      2.2215    107.0411     12.2854     13.9896     14.5363     14.3357     14.1753    115.8320    -27.1401   1517.6853     55.3752     77.3729
    684.4284      8.7500      6.4519      8.5847      2.2196    106.1442     12.1165     13.7728     14.3188     14.1412     13.9971    115.9482    -28.6088   1516.4966     55.3216     74.4122
    684.5808      8.7500      6.4462      8.5847      2.2177    105.8089     11.8992     13.5178     14.0725     13.9170     13.7839    116.0072    -30.9942   1514.4110     55.2686     73.7176
    684.7332      8.7500      6.4406      8.5836      2.2158    106.4672     11.7640     13.3863     13.9633     13.8270     13.6980    116.0239    -31.5366   1514.1702     55.2157     75.2504
    684.8856      8.7500      6.4349      8.5801      2.2140    107.2554     11.6357     13.2883     13.8925     13.7737     13.6423    116.0245    -31.4096   1514.5770     55.1624     75.5073
    685.0380      8.7500      6.4292      8.5779      2.2121    107.4490     11.5346     13.2210     13.8496     13.7457     13.6059    115.9690    -29.1368   1517.0981     55.1088     74.4497
    685.1904      8.7500      6.4235      8.5799      2.2102    107.2092     11.5779     13.2926     13.9407     13.8472     13.6931    115.7851    -22.9518   1523.5065     55.0551     74.2919
    685.3428      8.7500      6.4179      8.5797      2.2083    106.9101     11.7568     13.4921     14.1513     14.0629     13.8896    115.4695    -16.1282   1530.5339     55.0015     74.5309
    685.4952      8.7500      6.4122      8.5710      2.2064    106.3438     11.9417     13.6936     14.3518     14.2632     14.0687    115.0815    -15.2790   1531.5679     54.9480     73.9496
    685.6476      8.7500      6.4065      8.5618      2.2045    105.1583     12.0104     13.7841     14.4311     14.3376     14.1227    114.6677    -19.2502   1527.7814     54.8948     71.7452
    685.8000      8.7500      6.4009      8.5603      2.2026    103.9515     11.9913     13.8073     14.4432     14.3403     14.1074    114.2578    -24.3417   1522.9000     54.8423     71.1547
    685.9524      8.7500      6.3952      8.5651      2.2007    103.4773     11.9950     13.8745     14.5082     14.3925     14.1438    113.9050    -26.3170   1521.1560     54.7903     74.6992
    686.1048      8.7500      6.3895      8.5710      2.1988    103.6717     12.0408     13.9719     14.6108     14.4808     14.2192    113.6411    -26.6336   1521.0634     54.7386     79.0023
    686.2572      8.7500      6.3838      8.5772      2.1969    104.1646     12.1643     14.1156     14.7640     14.6198     14.3483    113.3947    -27.5125   1520.4139     54.6867     81.1848
    686.4096      8.7500      6.3781      8.5820      2.1950    104.6900     12.4619     14.4320     15.0966     14.9382     14.6580    113.1143    -31.3652   1516.8062     54.6346     82.3260
    686.5620      8.7500      6.3724      8.5843      2.1931    105.1924     12.7541     14.7536     15.4331     15.2628     14.9771    112.9070    -35.1967   1513.2366     54.5823     82.3300
    686.7144      8.7500      6.3667      8.5807      2.1912    105.5166     12.6375     14.6371     15.3140     15.1384     14.8567    112.8918    -34.6266   1514.0808     54.5297     81.1934
    686.8668      8.7500      6.3611      8.5713      2.1893    105.9234     12.1102     14.0567     14.7105     14.5361     14.2671    112.9829    -29.3968   1519.5779     54.4769     80.4782
    687.0192      8.7500      6.3554      8.5653      2.1874    106.4524     11.6239     13.4988     14.1260     13.9522     13.6964    112.9563    -25.2787   1523.9324     54.4240     81.4146
    687.1716      8.7500      6.3497      8.5673      2.1855    106.9695     11.5332     13.3629     13.9754     13.7960     13.5476    112.7002    -23.6988   1525.7277     54.3707     83.5933
    687.3240      8.7500      6.3440      8.5662      2.1836    107.0203     11.8074     13.6216     14.2307     14.0392     13.7931    112.3822    -22.1422   1527.4908     54.3173     83.9046
    687.4764      8.7500      6.3383      8.5605      2.1817    106.5874     12.1139     13.9117     14.5194     14.3147     14.0716    112.2324    -23.8956   1525.9333     54.2638     80.7539
    687.6288      8.7500      6.3327      8.5607      2.1798    105.7813     12.1883     13.9616     14.5662     14.3526     14.1166    112.2445    -33.1922   1516.8556     54.2105     77.7718
    687.7812      8.7500      6.3270      8.5641      2.1780    105.1481     12.0968     13.8744     14.4815     14.2633     14.0363    112.3352    -40.7804   1509.5553     54.1576     79.0982
    687.9336      8.7500      6.3213      8.5621      2.1761    104.9877     11.9387     13.7517     14.3658     14.1470     13.9293    112.5452    -38.5124   1512.1611     54.1050     83.4394
    688.0860      8.7500      6.3157      8.5596      2.1742    105.3385     11.7065     13.5357     14.1492     13.9346     13.7267    112.8404    -32.9955   1518.0029     54.0525     86.6834
    688.2384      8.7500      6.3100      8.5619      2.1723    105.9963     11.5679     13.3844     13.9877     13.7795     13.5801    113.0745    -32.5877   1518.7051     53.9998     85.6618
