~Version Information
 VERS.                2.00:   CWLS log ASCII Standard -VERSION 2.00
 WRAP.                  NO:   One line per frame      
~Well Information Block
#MNEM.UNIT                  Well Data                   Data Description
#----.----   ----------------------------------------   -------------------------------
 STRT.M                                      489.9660 : Starting Depth
 STOP.M                                      861.9744 : Ending Depth
 STEP.M                                        0.1524 : Level Spacing
 NULL.                                      -999.2500 : Absent Value
 COMP.       WINTERSHALL                              : Company
 WELL.       WIN.Nq.AF.WW-1                           : Well
 FLD .       AGUADA FEDERAL                           : Field
 LOC .                                                : Location
 CNTY.                                                : County
 STAT.                                                : State
 CTRY.       USA                                      : Country
 SRVC.       Baker Hughes                             : Service Company
 DATE.       24-Oct-2018                              : Log Date
 API .                                                : API Number
 UWI .                                                : Unique Well ID
~Curve Information Block
#MNEM    .UNIT        API Codes     Curve Description
#--------.--------   ------------   ---------------------------------------------------
 DEPT    .M          99 995 99  1 : Depth
 BIT     .IN         70 282  1  1 : Bit size
 BVOL    .M3         70 995 99  1 : Borehole volume
 CAL     .IN         70 280 99  1 : Caliper
 CVOL    .M3         70 995 99  1 : Cement volume
 DT24QI  .US/F       60 520 99  1 : Slowness over 24-inch interval
 M2R1    .OHMM        8 120 10  1 : Vertical 2-foot resolution matched resistivity, 10-inch DOI
 M2R2    .OHMM        8 120 20  1 : Vertical 2-foot resolution matched resistivity, 20-inch DOI
 M2R3    .OHMM        8 120 30  1 : Vertical 2-foot resolution matched resistivity, 30-inch DOI
 M2R6    .OHMM        8 120 60  1 : Vertical 2-foot resolution matched resistivity, 60-inch DOI
 M2R9    .OHMM        8 120 90  1 : Vertical 2-foot resolution matched resistivity, 90-inch DOI
 SP      .MV          1  10  1  1 : Spontaneous Potential
 TEN     .LBF        99 635 99  1 : Differential tension
 TTEN    .LBF        99 635 99  1 : Total tension
 TTQI    .MS         60 529 99  1 : Integrated traveltime from acoustic slowness
 GR      .GAPI       30 310  1  1 : Gamma ray
~Parameter Information Block
#MNEM.UNIT               Parameter Value                Parameter Description
#----.----   ----------------------------------------   -------------------------------
 LATI.DEG    0.0000                                   : Latitude
 LONG.DEG    0.0000                                   : Longitude
#  Curve Data
~A  DEPT        BIT         BVOL        CAL         CVOL        DT24QI      M2R1        M2R2        M2R3        M2R6        M2R9        SP          TEN         TTEN        TTQI        GR        
# ...
    784.4028      8.7500      2.6748      8.7949      0.9248    102.1206      6.1876      6.1068      6.0805      6.0042      5.9920     87.8790    -31.0567   1626.3710     22.3608    115.2697
    784.5552      8.7500      2.6689      8.7218      0.9226    102.4537      6.3802      6.2503      6.2287      6.1423      6.1309     87.5932    -26.7191   1630.9873     22.3097    108.7264
    784.7076      8.7500      2.6630      8.7381      0.9205    102.1545      6.6886      6.5480      6.5345      6.4327      6.4203     87.4172    -21.9475   1636.0344     22.2585    102.3690
    784.8600      8.7500      2.6570      8.8471      0.9182    101.7268      6.5040      6.4552      6.4558      6.3486      6.3344     87.5482    -22.3189   1635.9355     22.2074    100.5799
    785.0124      8.7500      2.6509      8.9218      0.9160    101.7451      5.8372      5.9171      5.9301      5.8337      5.8174     87.8605    -25.6667   1632.8782     22.1565    102.8053
    785.1648      8.7500      2.6449      8.9127      0.9138    102.3408      5.0964      5.2703      5.2902      5.2000      5.1807     88.1008    -25.1050   1633.7511     22.1057    108.2534
    785.3172      8.7500      2.6389      8.8727      0.9115    103.0847      4.7100      4.9166      4.9356      4.8477      4.8232     88.1159    -20.2573   1638.8955     22.0545    114.1473
    785.4696      8.7500      2.6329      8.8225      0.9093    103.4783      4.9312      5.1195      5.1265      5.0308      4.9963     87.8160    -19.3390   1640.0620     22.0030    114.0363
    785.6220      8.7500      2.6269      8.7618      0.9071    103.5435      5.8139      5.9367      5.9161      5.7991      5.7458     87.2856    -25.1287   1634.4978     21.9512    104.3850
    785.7744      8.7500      2.6209      8.7136      0.9049    103.4616      6.8186      6.8072      6.7350      6.5829      6.5005     86.7838    -31.0292   1628.8523     21.8995     90.1940
    785.9268      8.7500      2.6149      8.6867      0.9027    102.8834      7.0923      6.9281      6.8103      6.6557      6.5580     86.4576    -32.1064   1628.0671     21.8477     81.8831
    786.0792      8.7500      2.6089      8.6765      0.9005    101.3956      6.8074      6.5844      6.4520      6.3143      6.2159     86.2807    -30.1090   1630.3682     21.7963     81.1614
    786.2316      8.7500      2.6029      8.6788      0.8983     99.0467      6.6541      6.4338      6.2967      6.1667      6.0650     86.1859    -25.3117   1635.4489     21.7456     80.0173
    786.3840      8.7500      2.5969      8.6882      0.8960     96.2609      6.9415      6.7391      6.5882      6.4461      6.3286     86.1304    -21.9391   1639.0630     21.6961     75.0693
    786.5364      8.7500      2.5910      8.7025      0.8939     93.8037      7.6758      7.5005      7.3196      7.1427      6.9931     86.1323    -22.2528   1638.9785     21.6479     72.6458
    786.6888      8.7500      2.5851      8.7368      0.8918     92.5586      8.3422      8.2195      8.0101      7.7928      7.6108     86.2104    -19.0863   1642.3661     21.6010     77.6877
    786.8412      8.7500      2.5791      8.7712      0.8896     93.1157      8.2770      8.2247      8.0236      7.7974      7.6126     86.1880    -13.3970   1648.2096     21.5548     85.6586
    786.9936      8.7500      2.5730      8.7561      0.8873     94.9458      7.7098      7.6935      7.5230      7.3154      7.1515     85.8610    -10.8649   1650.8312     21.5082     87.2458
    787.1460      8.7500      2.5669      8.7040      0.8849     96.4170      7.2127      7.1821      7.0325      6.8442      6.7001     85.3164     -7.0910   1654.6882     21.4607     80.6788
    787.2984      8.7500      2.5608      8.6708      0.8826     95.8259      7.0117      6.9251      6.7780      6.5995      6.4656     84.7971      1.3993   1663.2490     21.4125     72.8606
    787.4508      8.7500      2.5547      8.6626      0.8804     92.5225      7.3063      7.1180      6.9480      6.7612      6.6217     84.4278      6.5202   1668.3999     21.3646     68.4796
    787.6032      8.7500      2.5488      8.6494      0.8782     88.0291      8.3462      7.9941      7.7628      7.5374      7.3669     84.2290      3.9588   1665.8403     21.3183     66.0822
    787.7556      8.7500      2.5429      8.6372      0.8761     85.3988      9.7587      9.2270      8.9157      8.6356      8.4173     84.1726     -0.8960   1660.9800     21.2743     64.3158
    787.9080      8.7500      2.5371      8.6382      0.8740     86.6035     10.0166      9.5233      9.2192      8.9422      8.7156     84.1752     -1.1104   1660.7677     21.2316     64.1223
    788.0604      8.7500      2.5313      8.6475      0.8720     90.7593      8.9467      8.6880      8.4853      8.2718      8.0855     84.1654      0.3219   1662.2070     21.1883     65.6970
    788.2128      8.7500      2.5254      8.6463      0.8700     94.9915      7.9878      7.9157      7.8018      7.6345      7.4870     84.1437      1.4992   1663.3813     21.1429     67.7457
    788.3652      8.7500      2.5196      8.6328      0.8679     97.6688      7.6238      7.6802      7.6217      7.4731      7.3444     84.1419      7.0719   1668.9041     21.0954     68.3918
    788.5176      8.7500      2.5138      8.6306      0.8659     98.7614      7.6039      7.7494      7.7321      7.5907      7.4675     84.1640     12.9481   1674.6661     21.0466     67.3670
    788.6700      8.7500      2.5079      8.6474      0.8638     98.8862      7.7214      7.9030      7.9113      7.7792      7.6610     84.1964     11.9071   1673.4933     20.9972     66.0474
    788.8224      8.7500      2.5020      8.6574      0.8616     98.7559      7.8084      8.0140      8.0365      7.9132      7.8055     84.2261      9.8754   1671.3551     20.9478     65.8258
    788.9748      8.7500      2.4960      8.6487      0.8595     98.9548      7.6927      7.9031      7.9340      7.8206      7.7276     84.2155     11.9105   1673.2922     20.8984     66.2476
    789.1272      8.7500      2.4902      8.6444      0.8574     99.6830      7.4291      7.6324      7.6688      7.5640      7.4866     84.1621     11.9841   1673.2778     20.8489     67.5376
    789.2796      8.7500      2.4844      8.6571      0.8554    100.6478      7.2344      7.4230      7.4612      7.3614      7.2948     84.1321      9.1437   1670.3928     20.7991     68.6807
    789.4320      8.7500      2.4786      8.6701      0.8534    101.9028      7.0903      7.2502      7.2832      7.1866      7.1247     84.1588      3.6178   1664.8511     20.7488     67.2511
    789.5844      8.7500      2.4728      8.6693      0.8514    103.3777      6.9608      7.0733      7.0925      6.9923      6.9360     84.2037     -9.4654   1651.7935     20.6978     64.6564
    789.7368      8.7500      2.4670      8.6615      0.8494    104.9578      6.9056      6.9699      6.9692      6.8624      6.8096     84.2477    -23.0377   1638.3690     20.6461     64.4405
    789.8892      8.7500      2.4612      8.6623      0.8474    105.9094      6.9387      6.9420      6.9185      6.8033      6.7508     84.3046    -26.3639   1635.3083     20.5937     66.5853
    790.0416      8.7500      2.4555      8.6677      0.8454    106.0172      6.9810      6.9364      6.8910      6.7678      6.7146     84.3833    -22.7616   1639.1940     20.5407     68.6955
    790.1940      8.7500      2.4497      8.6677      0.8434    105.5520      6.9651      6.8976      6.8352      6.7075      6.6539     84.4716    -18.7407   1643.4592     20.4877     69.4239
    790.3464      8.7500      2.4439      8.6617      0.8415    104.9894      6.8526      6.7874      6.7157      6.5884      6.5356     84.5506    -13.8697   1648.5590     20.4349     69.5204
    790.4988      8.7500      2.4382      8.6527      0.8395    104.4015      6.7609      6.7094      6.6350      6.5076      6.4551     84.6264    -13.1127   1649.5483     20.3824     71.0124
    790.6512      8.7500      2.4324      8.6535      0.8375    103.5811      6.8824      6.8486      6.7727      6.6358      6.5799     84.7759    -20.8829   1642.0358     20.3302     74.8308
