~Version Information
 VERS.                2.00:   CWLS log ASCII Standard -VERSION 2.00
 WRAP.                  NO:   One line per frame      
~Well Information Block
#MNEM.UNIT                  Well Data                   Data Description
#----.----   ----------------------------------------   -------------------------------
 STRT.M                                      489.9660 : Starting Depth
 STOP.M                                      861.9744 : Ending Depth
 STEP.M                                        0.1524 : Level Spacing
 NULL.                                      -999.2500 : Absent Value
 COMP.       WINTERSHALL                              : Company
 WELL.       WIN.Nq.AF.WW-1                           : Well
 FLD .       AGUADA FEDERAL                           : Field
 LOC .                                                : Location
 CNTY.                                                : County
 STAT.                                                : State
 CTRY.       USA                                      : Country
 SRVC.       Baker Hughes                             : Service Company
 DATE.       24-Oct-2018                              : Log Date
 API .                                                : API Number
 UWI .                                                : Unique Well ID
~Curve Information Block
#MNEM    .UNIT        API Codes     Curve Description
#--------.--------   ------------   ---------------------------------------------------
 DEPT    .M          99 995 99  1 : Depth
 BIT     .IN         70 282  1  1 : Bit size
 BVOL    .M3         70 995 99  1 : Borehole volume
 CAL     .IN         70 280 99  1 : Caliper
 CVOL    .M3         70 995 99  1 : Cement volume
 DT24QI  .US/F       60 520 99  1 : Slowness over 24-inch interval
 M2R1    .OHMM        8 120 10  1 : Vertical 2-foot resolution matched resistivity, 10-inch DOI
 M2R2    .OHMM        8 120 20  1 : Vertical 2-foot resolution matched resistivity, 20-inch DOI
 M2R3    .OHMM        8 120 30  1 : Vertical 2-foot resolution matched resistivity, 30-inch DOI
 M2R6    .OHMM        8 120 60  1 : Vertical 2-foot resolution matched resistivity, 60-inch DOI
 M2R9    .OHMM        8 120 90  1 : Vertical 2-foot resolution matched resistivity, 90-inch DOI
 SP      .MV          1  10  1  1 : Spontaneous Potential
 TEN     .LBF        99 635 99  1 : Differential tension
 TTEN    .LBF        99 635 99  1 : Total tension
 TTQI    .MS         60 529 99  1 : Integrated traveltime from acoustic slowness
 GR      .GAPI       30 310  1  1 : Gamma ray
~Parameter Information Block
#MNEM.UNIT               Parameter Value                Parameter Description
#----.----   ----------------------------------------   -------------------------------
 LATI.DEG    0.0000                                   : Latitude
 LONG.DEG    0.0000                                   : Longitude
#  Curve Data
~A  DEPT        BIT         BVOL        CAL         CVOL        DT24QI      M2R1        M2R2        M2R3        M2R6        M2R9        SP          TEN         TTEN        TTQI        GR        
# ...
    854.8116      8.7500      0.0236   -999.2500      0.0085   -999.2500     13.1056     13.0940     13.2260     13.2081     12.9856     89.6110    380.6000   1775.1882   -999.2500   -999.2500
    854.9640      8.7500      0.0177   -999.2500      0.0064   -999.2500     12.5831     12.7403     12.8696     12.8257     12.6118     89.7489    390.2320   1781.5790   -999.2500   -999.2500
    855.1164      8.7500      0.0118   -999.2500      0.0043   -999.2500     11.8607     12.1279     12.2727     12.1994     11.9959     90.0637    398.2634   1786.3135   -999.2500   -999.2500
    855.2688      8.7500      0.0059   -999.2500      0.0021   -999.2500     11.1097     11.4208     11.5760     11.4787     11.2886     90.4551    403.7021   1788.3208   -999.2500   -999.2500
    855.4212      8.7500   -999.2500   -999.2500   -999.2500   -999.2500     10.8836     11.2284     11.3728     11.2558     11.0739     90.9254    407.4695   1788.6462   -999.2500   -999.2500
    855.5736      8.7500   -999.2500   -999.2500   -999.2500   -999.2500     11.3051     11.6912     11.8213     11.6878     11.5072     91.3095    410.4236   1788.1675   -999.2500   -999.2500
    855.7260      8.7500   -999.2500   -999.2500   -999.2500   -999.2500     11.7367     12.1659     12.2810     12.1413     11.9670     91.0703    413.1887   1787.3777   -999.2500   -999.2500
    855.8784      8.7500   -999.2500   -999.2500   -999.2500   -999.2500     11.6997     12.1629     12.2633     12.1312     11.9754     89.7961    417.3478   1787.9170   -999.2500   -999.2500
    856.0308      8.7500   -999.2500   -999.2500   -999.2500   -999.2500     11.5188     12.0201     12.1148     11.9965     11.8648     87.8824    423.5017   1790.5117   -999.2500   -999.2500
    856.1832      8.7500   -999.2500   -999.2500   -999.2500   -999.2500     11.5155     12.0571     12.1559     12.0491     11.9419     86.1828    425.3323   1788.7644   -999.2500   -999.2500
    856.3356      8.7500   -999.2500   -999.2500   -999.2500   -999.2500     11.6809     12.2421     12.3490     12.2481     12.1639     85.2346    423.0621   1782.8507   -999.2500   -999.2500
    856.4880      8.7500   -999.2500   -999.2500   -999.2500   -999.2500     11.8769     12.4349     12.5365     12.4349     12.3696     85.0406    424.1569   1780.3566   -999.2500   -999.2500
    856.6404      8.7500   -999.2500   -999.2500   -999.2500   -999.2500     11.8278     12.3445     12.4454     12.3447     12.2855     85.1699    426.8796   1779.5222   -999.2500   -999.2500
    856.7928      8.7500   -999.2500   -999.2500   -999.2500   -999.2500     11.4220     11.8848     11.9853     11.8815     11.8230     85.5612    425.0434   1774.0011   -999.2500   -999.2500
    856.9452      8.7500   -999.2500   -999.2500   -999.2500   -999.2500     10.9804     11.4200     11.5084     11.3961     11.3324     86.4487    422.1246   1767.3423   -999.2500   -999.2500
    857.0976      8.7500   -999.2500   -999.2500   -999.2500   -999.2500     10.8070     11.2547     11.3303     11.2031     11.1273     87.2716    424.7867   1766.3624   -999.2500   -999.2500
    857.2500      8.7500   -999.2500   -999.2500   -999.2500   -999.2500     10.7862     11.2460     11.3021     11.1544     11.0604     87.2515    431.3143   1769.2826   -999.2500   -999.2500
    857.4024      8.7500   -999.2500   -999.2500   -999.2500   -999.2500     10.7196     11.1537     11.1771     11.0072     10.8916     86.8262    436.6895   1771.0251   -999.2500   -999.2500
    857.5548      8.7500   -999.2500   -999.2500   -999.2500   -999.2500     10.6081     10.9649     10.9417     10.7507     10.6140     87.0551    441.6653   1772.3352   -999.2500   -999.2500
    857.7072      8.7500   -999.2500   -999.2500   -999.2500   -999.2500     10.4372     10.7208     10.6433     10.4291     10.2816     87.7118    446.1562   1773.0308   -999.2500   -999.2500
    857.8596      8.7500   -999.2500   -999.2500   -999.2500   -999.2500     10.3455     10.5337     10.4037     10.1710     10.0176     87.5637    445.4756   1768.4592   -999.2500   -999.2500
    858.0120      8.7500   -999.2500   -999.2500   -999.2500   -999.2500     10.2980     10.4178     10.2459     10.0007      9.8471     86.3085    447.1519   1766.3113   -999.2500   -999.2500
    858.1644      8.7500   -999.2500   -999.2500   -999.2500   -999.2500     10.1820     10.2690     10.0747      9.8311      9.6865     84.9407    459.7927   1775.0908   -999.2500   -999.2500
    858.3168      8.7500   -999.2500   -999.2500   -999.2500   -999.2500     10.0213     10.1001      9.9054      9.6786      9.5516     84.0191    475.1051   1786.3516   -999.2500   -999.2500
    858.4692      8.7500   -999.2500   -999.2500   -999.2500   -999.2500      9.9602     10.0358      9.8561      9.6550      9.5505     83.6591    484.2073   1791.3318   -999.2500   -999.2500
    858.6216      8.7500   -999.2500   -999.2500   -999.2500   -999.2500     10.0725     10.1256      9.9710      9.8018      9.7235     84.1544    494.5106   1797.5024   -999.2500   -999.2500
    858.7740      8.7500   -999.2500   -999.2500   -999.2500   -999.2500     10.2492     10.2398     10.1191      9.9912      9.9447     85.1851    514.6652   1813.3317   -999.2500   -999.2500
    858.9264      8.7500   -999.2500   -999.2500   -999.2500   -999.2500     10.3424     10.2348     10.1541     10.0753     10.0645     86.2340    538.5114   1832.5549   -999.2500   -999.2500
    859.0788      8.7500   -999.2500   -999.2500   -999.2500   -999.2500     10.3484     10.1421     10.1001     10.0700     10.0908     87.2356    552.4385   1841.7460   -999.2500   -999.2500
    859.2312      8.7500   -999.2500   -999.2500   -999.2500   -999.2500     10.3238     10.0700     10.0665     10.0533     10.0920     87.9616    551.7626   1836.4053   -999.2500   -999.2500
    859.3836      8.7500   -999.2500   -999.2500   -999.2500   -999.2500     10.2910     10.0201     10.0309     10.0521     10.1143     88.0381    552.4543   1832.4431   -999.2500   -999.2500
    859.5360      8.7500   -999.2500   -999.2500   -999.2500   -999.2500   -999.2500   -999.2500   -999.2500   -999.2500   -999.2500     87.7502    580.3806   1855.5408   -999.2500   -999.2500
    859.6884      8.7500   -999.2500   -999.2500   -999.2500   -999.2500   -999.2500   -999.2500   -999.2500   -999.2500   -999.2500     87.4958    614.2202   1884.3413   -999.2500   -999.2500
    859.8408      8.7500   -999.2500   -999.2500   -999.2500   -999.2500   -999.2500   -999.2500   -999.2500   -999.2500   -999.2500     87.2668    584.9061   1849.9288   -999.2500   -999.2500
    859.9932      8.7500   -999.2500   -999.2500   -999.2500   -999.2500   -999.2500   -999.2500   -999.2500   -999.2500   -999.2500     86.9037    467.5419   1727.8362   -999.2500   -999.2500
    860.1456      8.7500   -999.2500   -999.2500   -999.2500   -999.2500   -999.2500   -999.2500   -999.2500   -999.2500   -999.2500     86.4202    305.6415   1562.2083   -999.2500   -999.2500
    860.2980      8.7500   -999.2500   -999.2500   -999.2500   -999.2500   -999.2500   -999.2500   -999.2500   -999.2500   -999.2500     86.0026    136.2128   1403.9462   -999.2500   -999.2500
    860.4504      8.7500   -999.2500   -999.2500   -999.2500   -999.2500   -999.2500   -999.2500   -999.2500   -999.2500   -999.2500     85.7513      1.3881   1343.6960   -999.2500   -999.2500
    860.6028      8.7500   -999.2500   -999.2500   -999.2500   -999.2500   -999.2500   -999.2500   -999.2500   -999.2500   -999.2500     85.6122    -54.2382   1423.0991   -999.2500   -999.2500
    860.7552      8.7500   -999.2500   -999.2500   -999.2500   -999.2500   -999.2500   -999.2500   -999.2500   -999.2500   -999.2500     85.5193    -49.0595   1540.6537   -999.2500   -999.2500
    860.9076      8.7500   -999.2500   -999.2500   -999.2500   -999.2500   -999.2500   -999.2500   -999.2500   -999.2500   -999.2500     85.4219    -37.6993   1591.3154   -999.2500   -999.2500
    861.0600      8.7500   -999.2500   -999.2500   -999.2500   -999.2500   -999.2500   -999.2500   -999.2500   -999.2500   -999.2500     85.2905    -35.0741   1596.4822   -999.2500   -999.2500
