~Version Information
 VERS.                2.00:   CWLS log ASCII Standard -VERSION 2.00
 WRAP.                  NO:   One line per frame      
~Well Information Block
#MNEM.UNIT                  Well Data                   Data Description
#----.----   ----------------------------------------   -------------------------------
 STRT.M                                      489.9660 : Starting Depth
 STOP.M                                      861.9744 : Ending Depth
 STEP.M                                        0.1524 : Level Spacing
 NULL.                                      -999.2500 : Absent Value
 COMP.       WINTERSHALL                              : Company
 WELL.       WIN.Nq.AF.WW-1                           : Well
 FLD .       AGUADA FEDERAL                           : Field
 LOC .                                                : Location
 CNTY.                                                : County
 STAT.                                                : State
 CTRY.       USA                                      : Country
 SRVC.       Baker Hughes                             : Service Company
 DATE.       24-Oct-2018                              : Log Date
 API .                                                : API Number
 UWI .                                                : Unique Well ID
~Curve Information Block
#MNEM    .UNIT        API Codes     Curve Description
#--------.--------   ------------   ---------------------------------------------------
 DEPT    .M          99 995 99  1 : Depth
 BIT     .IN         70 282  1  1 : Bit size
 BVOL    .M3         70 995 99  1 : Borehole volume
 CAL     .IN         70 280 99  1 : Caliper
 CVOL    .M3         70 995 99  1 : Cement volume
 DT24QI  .US/F       60 520 99  1 : Slowness over 24-inch interval
 M2R1    .OHMM        8 120 10  1 : Vertical 2-foot resolution matched resistivity, 10-inch DOI
 M2R2    .OHMM        8 120 20  1 : Vertical 2-foot resolution matched resistivity, 20-inch DOI
 M2R3    .OHMM        8 120 30  1 : Vertical 2-foot resolution matched resistivity, 30-inch DOI
 M2R6    .OHMM        8 120 60  1 : Vertical 2-foot resolution matched resistivity, 60-inch DOI
 M2R9    .OHMM        8 120 90  1 : Vertical 2-foot resolution matched resistivity, 90-inch DOI
 SP      .MV          1  10  1  1 : Spontaneous Potential
 TEN     .LBF        99 635 99  1 : Differential tension
 TTEN    .LBF        99 635 99  1 : Total tension
 TTQI    .MS         60 529 99  1 : Integrated traveltime from acoustic slowness
 GR      .GAPI       30 310  1  1 : Gamma ray
~Parameter Information Block
#MNEM.UNIT               Parameter Value                Parameter Description
#----.----   ----------------------------------------   -------------------------------
 LATI.DEG    0.0000                                   : Latitude
 LONG.DEG    0.0000                                   : Longitude
#  Curve Data
~A  DEPT        BIT         BVOL        CAL         CVOL        DT24QI      M2R1        M2R2        M2R3        M2R6        M2R9        SP          TEN         TTEN        TTQI        GR        
# ...
    707.5932      8.7500      5.6177      8.3651      1.9606    106.4975     13.1017     14.9103     15.4967     15.4508     15.1859    102.0874    -49.2899   1532.0178     47.3777     73.7638
    707.7456      8.7500      5.6127      8.3591      1.9594    105.8670     13.0972     15.2138     15.9082     15.8925     15.6325    102.5760    -48.9323   1532.7566     47.3245     76.6138
    707.8980      8.7500      5.6081      8.3628      1.9585    104.8656     12.4135     14.5947     15.3388     15.3369     15.0967    102.6014    -45.0837   1536.9884     47.2715     81.0219
    708.0504      8.7500      5.6037      8.3787      1.9579    103.7892     11.6496     13.7620     14.4999     14.4852     14.2669    102.0499    -39.8849   1542.5479     47.2191     84.5676
    708.2028      8.7500      5.5989      8.3994      1.9569    103.4329     11.0544     13.0575     13.7489     13.6989     13.4988    101.2690    -37.8381   1544.9302     47.1672     86.2378
    708.3552      8.7500      5.5938      8.4115      1.9556    104.1901     10.7313     12.5945     13.2144     13.1155     12.9280    100.9755    -39.0179   1544.0925     47.1155     86.3877
    708.5076      8.7500      5.5884      8.3973      1.9540    105.5770     10.8841     12.5802     13.1237     12.9677     12.7857    101.4080    -35.0854   1548.3561     47.0634     86.0245
    708.6600      8.7500      5.5830      8.3437      1.9523    106.4542     11.4088     12.8865     13.3519     13.1359     12.9535    102.0920    -29.3436   1554.3447     47.0106     86.7211
    708.8124      8.7500      5.5775      8.2750      1.9507    106.3674     11.8544     13.0545     13.4388     13.1733     12.9894    102.5970    -33.1189   1550.7639     46.9574     86.8829
    708.9648      8.7500      5.5721      8.2510      1.9490    105.7487     11.8294     12.7718     13.0842     12.7933     12.6110    102.8509    -38.2455   1545.8844     46.9042     85.4093
    709.1172      8.7500      5.5667      8.3104      1.9474    105.2324     11.0736     11.8042     12.1006     11.8168     11.6439    102.8479    -31.8547   1552.5686     46.8513     86.5248
    709.2696      8.7500      5.5612      8.4218      1.9457    104.8978      9.9405     10.5966     10.8646     10.6124     10.4497    102.7115    -17.4836   1567.1997     46.7987     91.4039
    709.4220      8.7500      5.5558      8.5158      1.9441    104.7914      9.5207     10.2585     10.5164     10.2902     10.1196    102.8829     -6.3385   1578.5275     46.7463     93.3224
    709.5744      8.7500      5.5504      8.5501      1.9425    105.3402     10.2212     11.1779     11.4948     11.2799     11.0744    103.5286     -7.8290   1577.1615     46.6939     88.4899
    709.7268      8.7500      5.5450      8.5198      1.9409    106.3639     11.4007     12.7237     13.1492     12.9551     12.7002    104.1623    -18.1435   1566.9907     46.6412     82.5537
    709.8792      8.7500      5.5396      8.4603      1.9393    107.5001     12.0604     13.7538     14.2942     14.1456     13.8512    104.3395    -20.4891   1564.8459     46.5880     79.8196
    710.0316      8.7500      5.5342      8.4231      1.9376    108.1353     12.2259     14.2150     14.8596     14.7667     14.4446    104.1204    -13.8070   1571.7251     46.5343     80.7778
    710.1840      8.7500      5.5288      8.4389      1.9360    108.1400     12.1676     14.3657     15.0942     15.0486     14.7097    103.6331    -11.9381   1573.7532     46.4802     85.4599
    710.3364      8.7500      5.5233      8.4829      1.9343    107.6109     11.9241     14.2336     15.0105     14.9932     14.6496    102.8947    -15.0234   1570.8330     46.4261     89.2574
    710.4888      8.7500      5.5179      8.5134      1.9326    106.6385     11.8312     14.2225     15.0240     15.0140     14.6697    102.1343    -16.9375   1569.1097     46.3723     87.4384
    710.6412      8.7500      5.5125      8.5087      1.9310    105.3716     12.1737     14.6958     15.5228     15.5063     15.1587    101.6961    -21.0864   1565.1699     46.3190     82.1896
    710.7936      8.7500      5.5072      8.4801      1.9295    104.0792     12.6633     15.3133     16.1582     16.1278     15.7811    101.5642    -28.4847   1558.0149     46.2663     77.6531
    710.9460      8.7500      5.5019      8.4444      1.9280    103.2241     12.7707     15.4194     16.2568     16.2169     15.8881    101.2612    -28.9678   1557.8042     46.2143     75.8988
    711.0984      8.7500      5.4966      8.4328      1.9265    102.6028     12.2821     14.7453     15.5440     15.5075     15.2167    100.4129    -19.1058   1567.8938     46.1627     78.7701
    711.2508      8.7500      5.4911      8.4806      1.9248    102.5051     11.3746     13.5297     14.2658     14.2458     14.0057     99.1828    -10.0674   1577.0674     46.1114     84.1485
    711.4032      8.7500      5.4856      8.5553      1.9230    102.6924     10.7938     12.7167     13.4055     13.4092     13.2164     98.1229    -11.6437   1575.5945     46.0601     86.6642
    711.5556      8.7500      5.4799      8.5922      1.9212    102.8531     11.0959     12.9736     13.6602     13.6939     13.5436     97.5404    -18.4590   1568.9375     46.0088     83.4411
    711.7080      8.7500      5.4743      8.5895      1.9193    102.4612     11.7854     13.6922     14.3886     14.4549     14.3237     97.0969    -22.9386   1564.6705     45.9573     77.5235
    711.8604      8.7500      5.4688      8.5851      1.9176    101.9358     11.7688     13.5617     14.2249     14.3144     14.2314     96.2849    -26.5566   1561.2892     45.9061     75.3218
    712.0128      8.7500      5.4633      8.5873      1.9159    101.5549     11.2195     12.8099     13.4231     13.5107     13.4851     95.0297    -31.3821   1556.7366     45.8551     78.8626
    712.1652      8.7500      5.4578      8.5923      1.9142    101.1017     10.7511     12.1855     12.7610     12.8226     12.8437     93.5608    -32.2891   1556.1416     45.8044     84.9428
    712.3176      8.7500      5.4523      8.6035      1.9124    100.4672     10.2117     11.5141     12.0294     12.0657     12.1215     92.0929    -26.1069   1562.6104     45.7538     89.1302
    712.4700      8.7500      5.4467      8.6284      1.9106    100.0684      9.4199     10.5516     10.9776     10.9908     11.0673     90.7788    -20.1373   1568.7842     45.7036     90.5340
    712.6224      8.7500      5.4411      8.6672      1.9088    100.3981      8.6375      9.5763      9.9077      9.9080      9.9874     89.7321    -16.9701   1572.0903     45.6535     90.8739
    712.7748      8.7500      5.4355      8.7043      1.9070    101.5918      8.2087      8.9860      9.2421      9.2406      9.3112     88.9955    -13.9969   1575.1702     45.6033     91.5300
    712.9272      8.7500      5.4300      8.7281      1.9053    103.4656      8.1826      8.8433      9.0454      9.0336      9.1067     88.5056    -14.0881   1575.1716     45.5526     91.7489
    713.0796      8.7500      5.4245      8.7430      1.9036    104.8035      8.3503      8.9262      9.0889      9.0716      9.1443     88.1488    -18.0194   1571.3420     45.5008     91.1089
    713.2320      8.7500      5.4190      8.7532      1.9018    104.7459      8.4866      8.9996      9.1325      9.1132      9.1828     87.8879    -21.7261   1567.7533     45.4484     90.2195
    713.3844      8.7500      5.4133      8.7512      1.9000    103.4623      8.4767      8.9468      9.0556      9.0366      9.1002     87.7578    -22.3292   1567.2731     45.3960     93.1151
    713.5368      8.7500      5.4076      8.7474      1.8981    101.9183      8.2425      8.6801      8.7679      8.7501      8.8056     87.8061    -21.0800   1568.6470     45.3443    102.4966
    713.6892      8.7500      5.4019      8.7575      1.8962    100.7885      7.9033      8.3125      8.3809      8.3638      8.4108     88.0235    -23.8423   1566.0348     45.2934    113.9237
    713.8416      8.7500      5.3962      8.7725      1.8942    100.1818      7.7596      8.1533      8.2091      8.1856      8.2258     88.2966    -33.3415   1556.7495     45.2430    120.7025
