~Version Information
 VERS.                2.00:   CWLS log ASCII Standard -VERSION 2.00
 WRAP.                  NO:   One line per frame      
~Well Information Block
#MNEM.UNIT                  Well Data                   Data Description
#----.----   ----------------------------------------   -------------------------------
 STRT.M                                      489.9660 : Starting Depth
 STOP.M                                      861.9744 : Ending Depth
 STEP.M                                        0.1524 : Level Spacing
 NULL.                                      -999.2500 : Absent Value
 COMP.       WINTERSHALL                              : Company
 WELL.       WIN.Nq.AF.WW-1                           : Well
 FLD .       AGUADA FEDERAL                           : Field
 LOC .                                                : Location
 CNTY.                                                : County
 STAT.                                                : State
 CTRY.       USA                                      : Country
 SRVC.       Baker Hughes                             : Service Company
 DATE.       24-Oct-2018                              : Log Date
 API .                                                : API Number
 UWI .                                                : Unique Well ID
~Curve Information Block
#MNEM    .UNIT        API Codes     Curve Description
#--------.--------   ------------   ---------------------------------------------------
 DEPT    .M          99 995 99  1 : Depth
 BIT     .IN         70 282  1  1 : Bit size
 BVOL    .M3         70 995 99  1 : Borehole volume
 CAL     .IN         70 280 99  1 : Caliper
 CVOL    .M3         70 995 99  1 : Cement volume
 DT24QI  .US/F       60 520 99  1 : Slowness over 24-inch interval
 M2R1    .OHMM        8 120 10  1 : Vertical 2-foot resolution matched resistivity, 10-inch DOI
 M2R2    .OHMM        8 120 20  1 : Vertical 2-foot resolution matched resistivity, 20-inch DOI
 M2R3    .OHMM        8 120 30  1 : Vertical 2-foot resolution matched resistivity, 30-inch DOI
 M2R6    .OHMM        8 120 60  1 : Vertical 2-foot resolution matched resistivity, 60-inch DOI
 M2R9    .OHMM        8 120 90  1 : Vertical 2-foot resolution matched resistivity, 90-inch DOI
 SP      .MV          1  10  1  1 : Spontaneous Potential
 TEN     .LBF        99 635 99  1 : Differential tension
 TTEN    .LBF        99 635 99  1 : Total tension
 TTQI    .MS         60 529 99  1 : Integrated traveltime from acoustic slowness
 GR      .GAPI       30 310  1  1 : Gamma ray
~Parameter Information Block
#MNEM.UNIT               Parameter Value                Parameter Description
#----.----   ----------------------------------------   -------------------------------
 LATI.DEG    0.0000                                   : Latitude
 LONG.DEG    0.0000                                   : Longitude
#  Curve Data
~A  DEPT        BIT         BVOL        CAL         CVOL        DT24QI      M2R1        M2R2        M2R3        M2R6        M2R9        SP          TEN         TTEN        TTQI        GR        
# ...
    611.5812      8.7500      9.2564      8.7715      3.2154     97.9815      5.2717      5.4737      5.5254      5.5046      5.5530    103.6644    -17.2137   1476.3523     78.2702     82.8911
    611.7336      8.7500      9.2507      8.7766      3.2135     96.9684      5.0761      5.2568      5.3009      5.2627      5.3041    103.8966    -15.9797   1477.7133     78.2213     88.6384
    611.8860      8.7500      9.2448      8.7819      3.2114     96.0619      5.0784      5.2427      5.2836      5.2287      5.2636    103.8615    -24.3096   1469.5083     78.1728     89.9690
    612.0384      8.7500      9.2388      8.7706      3.2092     96.2296      5.2065      5.3595      5.4015      5.3314      5.3594    103.6979    -32.6552   1461.3765     78.1247     87.3251
    612.1908      8.7500      9.2328      8.7549      3.2069     97.7196      5.0790      5.2139      5.2562      5.1793      5.1978    103.7307    -37.9070   1456.4250     78.0766     87.1831
    612.3432      8.7500      9.2267      8.7538      3.2046     99.6032      4.6031      4.7098      4.7437      4.6708      4.6761    104.0205    -37.6403   1457.0220     78.0278     93.4233
    612.4956      8.7500      9.2207      8.7618      3.2024    100.6915      4.2439      4.3229      4.3486      4.2846      4.2792    104.2992    -35.9209   1459.0581     77.9780     99.9943
    612.6480      8.7500      9.2147      8.7704      3.2002    100.6713      4.2828      4.3332      4.3481      4.2912      4.2755    104.2043    -33.8026   1461.4962     77.9276    100.2110
    612.8004      8.7500      9.2086      8.7861      3.1979     99.9570      4.7764      4.7899      4.7878      4.7402      4.7108    103.4413    -31.4887   1464.1277     77.8773     92.7500
    612.9528      8.7500      9.2027      8.7969      3.1957     99.1584      5.8093      5.7568      5.7271      5.6825      5.6303    102.0075    -29.8835   1466.0376     77.8273     81.1761
    613.1052      8.7500      9.1967      8.7773      3.1935     98.3273      7.3148      7.1480      7.0690      7.0440      6.9497    100.1679    -21.6447   1474.5618     77.7777     68.6137
    613.2576      8.7500      9.1907      8.7407      3.1913     97.2130      8.8197      8.5274      8.3867      8.4031      8.2570     98.3103     -7.2675   1489.1543     77.7285     58.4270
    613.4100      8.7500      9.1847      8.7171      3.1891     95.4833      9.6891      9.3783      9.2076      9.2672      9.0867     96.8036     -1.0089   1495.5292     77.6799     52.2509
    613.5624      8.7500      9.1788      8.6985      3.1870     92.8850      9.8445      9.6238      9.4694      9.5476      9.3593     95.7982     -7.4626   1489.1528     77.6322     49.0009
    613.7148      8.7500      9.1728      8.6567      3.1848     89.8669      9.7108      9.5605      9.4337      9.4997      9.3173     95.1032    -17.1862   1479.5420     77.5858     47.1035
    613.8672      8.7500      9.1669      8.5930      3.1826     86.9034      9.6668      9.4820      9.3621      9.3953      9.2196     94.4818    -24.0952   1472.8033     77.5408     46.9438
    614.0196      8.7500      9.1609      8.5371      3.1805     85.2365      9.7806      9.4651      9.3236      9.3128      9.1454     93.9072    -25.0476   1472.0630     77.4974     47.6262
    614.1720      8.7500      9.1550      8.5113      3.1783     85.6550      9.7701      9.3159      9.1377      9.0822      8.9327     93.5105    -21.8633   1475.4601     77.4548     46.8282
    614.3244      8.7500      9.1491      8.5096      3.1762     87.9690      9.5181      9.0119      8.8025      8.7171      8.5918     93.3645    -14.0903   1483.4147     77.4119     46.7424
    614.4768      8.7500      9.1432      8.5157      3.1741     91.1106      9.3062      8.8355      8.6021      8.5112      8.3942     93.3523     -2.4202   1495.1957     77.3679     49.2003
    614.6292      8.7500      9.1372      8.5239      3.1719     93.7017      9.3224      8.9335      8.6787      8.5734      8.4738     93.3412      2.4981   1500.1360     77.3224     50.6902
    614.7816      8.7500      9.1313      8.5196      3.1697     95.2334      9.5275      9.2394      8.9707      8.8500      8.7681     93.3714     -8.5548   1489.0793     77.2755     49.9616
    614.9340      8.7500      9.1253      8.4937      3.1676     96.1125      9.7802      9.5900      9.3270      9.1833      9.1236     93.5854    -25.4134   1472.3087     77.2279     49.2899
    615.0864      8.7500      9.1193      8.4746      3.1654     97.0473      9.7395      9.6530      9.4402      9.2684      9.2373     94.0699    -33.0927   1464.8424     77.1799     49.6308
    615.2388      8.7500      9.1134      8.4999      3.1632     98.1095      9.0912      9.1405      9.0297      8.8364      8.8337     94.8715    -29.9424   1468.2556     77.1313     50.4039
    615.3912      8.7500      9.1075      8.5540      3.1612     99.1924      7.9569      8.1331      8.1194      7.9398      7.9543     96.0730    -23.9072   1474.5188     77.0823     52.8629
    615.5436      8.7500      9.1017      8.6205      3.1591    100.3951      6.5145      6.7855      6.8266      6.6643      6.6818     97.7693    -17.2139   1481.3834     77.0327     61.0213
    615.6960      8.7500      9.0959      8.7071      3.1571    101.5428      5.1047      5.3755      5.4328      5.2952      5.3091     99.7137    -10.6952   1488.0134     76.9825     75.2144
    615.8484      8.7500      9.0902      8.7871      3.1551    102.2857      4.1839      4.4110      4.4656      4.3498      4.3594    101.2814     -6.7075   1492.0697     76.9317     87.5885
    616.0008      8.7500      9.0845      8.8200      3.1533    102.1836      3.8448      4.0239      4.0685      3.9640      3.9700    102.0456     -0.9155   1497.9036     76.8806     91.6765
    616.1532      8.7500      9.0789      8.8173      3.1515    101.0441      4.0018      4.1316      4.1613      4.0589      4.0612    102.0002      0.9249   1499.7545     76.8295     88.6907
    616.3056      8.7500      9.0733      8.8098      3.1496     99.2728      4.6495      4.7240      4.7313      4.6236      4.6211    101.4531    -10.4278   1488.4380     76.7790     81.8258
    616.4580      8.7500      9.0677      8.8028      3.1478     97.5657      5.4516      5.4644      5.4452      5.3296      5.3218    101.0263    -25.9965   1473.0107     76.7293     75.3257
    616.6104      8.7500      9.0621      8.7993      3.1460     96.1491      5.6791      5.6256      5.5785      5.4886      5.4748    101.0856    -26.5067   1472.7156     76.6805     74.0264
    616.7628      8.7500      9.0565      8.7977      3.1442     94.3697      5.5548      5.4704      5.4184      5.3664      5.3494    101.2174    -13.6091   1485.7747     76.6325     76.1300
    616.9152      8.7500      9.0509      8.7948      3.1424     92.1896      5.8945      5.7940      5.7445      5.7209      5.6978    100.9461     -5.5575   1493.8953     76.5853     77.0725
    617.0676      8.7500      9.0454      8.7759      3.1406     90.5821      6.9989      6.8884      6.8492      6.8504      6.8183    100.2916    -10.1618   1489.3442     76.5392     74.0137
    617.2200      8.7500      9.0398      8.7382      3.1388     90.5125      8.5785      8.4964      8.4942      8.5234      8.4693     99.5566    -18.8834   1480.7275     76.4939     67.6794
    617.3724      8.7500      9.0342      8.7204      3.1370     91.8782      8.9888      9.0515      9.0855      9.1225      9.0685     99.2554    -27.0256   1472.7539     76.4486     62.7468
    617.5248      8.7500      9.0285      8.7484      3.1351     93.3009      7.5262      7.7419      7.8098      7.8509      7.7964     99.6859    -36.2801   1463.7463     76.4027     64.6028
    617.6772      8.7500      9.0227      8.7895      3.1330     93.1818      6.1659      6.4460      6.5311      6.5555      6.5025    100.3820    -38.9405   1461.4102     76.3560     70.7196
    617.8296      8.7500      9.0167      8.8089      3.1309     91.0509      5.8356      6.1459      6.2391      6.2485      6.1927    100.5250    -25.8652   1474.8027     76.3095     73.6415
