~Version Information
 VERS.                2.00:   CWLS log ASCII Standard -VERSION 2.00
 WRAP.                  NO:   One line per frame      
~Well Information Block
#MNEM.UNIT                  Well Data                   Data Description
#----.----   ----------------------------------------   -------------------------------
 STRT.M                                      489.9660 : Starting Depth
 STOP.M                                      861.9744 : Ending Depth
 STEP.M                                        0.1524 : Level Spacing
 NULL.                                      -999.2500 : Absent Value
 COMP.       WINTERSHALL                              : Company
 WELL.       WIN.Nq.AF.WW-1                           : Well
 FLD .       AGUADA FEDERAL                           : Field
 LOC .                                                : Location
 CNTY.                                                : County
 STAT.                                                : State
 CTRY.       USA                                      : Country
 SRVC.       Baker Hughes                             : Service Company
 DATE.       24-Oct-2018                              : Log Date
 API .                                                : API Number
 UWI .                                                : Unique Well ID
~Curve Information Block
#MNEM    .UNIT        API Codes     Curve Description
#--------.--------   ------------   ---------------------------------------------------
 DEPT    .M          99 995 99  1 : Depth
 BIT     .IN         70 282  1  1 : Bit size
 BVOL    .M3         70 995 99  1 : Borehole volume
 CAL     .IN         70 280 99  1 : Caliper
 CVOL    .M3         70 995 99  1 : Cement volume
 DT24QI  .US/F       60 520 99  1 : Slowness over 24-inch interval
 M2R1    .OHMM        8 120 10  1 : Vertical 2-foot resolution matched resistivity, 10-inch DOI
 M2R2    .OHMM        8 120 20  1 : Vertical 2-foot resolution matched resistivity, 20-inch DOI
 M2R3    .OHMM        8 120 30  1 : Vertical 2-foot resolution matched resistivity, 30-inch DOI
 M2R6    .OHMM        8 120 60  1 : Vertical 2-foot resolution matched resistivity, 60-inch DOI
 M2R9    .OHMM        8 120 90  1 : Vertical 2-foot resolution matched resistivity, 90-inch DOI
 SP      .MV          1  10  1  1 : Spontaneous Potential
 TEN     .LBF        99 635 99  1 : Differential tension
 TTEN    .LBF        99 635 99  1 : Total tension
 TTQI    .MS         60 529 99  1 : Integrated traveltime from acoustic slowness
 GR      .GAPI       30 310  1  1 : Gamma ray
~Parameter Information Block
#MNEM.UNIT               Parameter Value                Parameter Description
#----.----   ----------------------------------------   -------------------------------
 LATI.DEG    0.0000                                   : Latitude
 LONG.DEG    0.0000                                   : Longitude
#  Curve Data
~A  DEPT        BIT         BVOL        CAL         CVOL        DT24QI      M2R1        M2R2        M2R3        M2R6        M2R9        SP          TEN         TTEN        TTQI        GR        
# ...
    662.7876      8.7500      7.2731      9.0545      2.5035    102.2985     14.2631     15.9764     16.5448     16.5226     15.9889    124.6085     15.3405   1541.8506     62.6320     74.0560
    662.9400      8.7500      7.2673      9.0258      2.5015    102.3057     14.0647     15.9095     16.5276     16.5085     15.9723    124.6446      5.6726   1532.0515     62.5809     73.8875
    663.0924      8.7500      7.2615      8.9945      2.4995    102.0883     13.4120     15.4564     16.1420     16.1340     15.6126    124.5585      3.9480   1530.2625     62.5297     73.1192
    663.2448      8.7500      7.2557      8.9762      2.4975    101.7761     12.7509     15.0305     15.7984     15.8081     15.3058    124.3766      8.3979   1534.6636     62.4787     71.8049
    663.3972      8.7500      7.2499      8.9614      2.4954    101.3691     12.4950     15.0117     15.8684     15.8994     15.4088    124.1536      7.6237   1533.8401     62.4278     71.2635
    663.5496      8.7500      7.2440      8.9261      2.4933    100.8636     12.5962     15.2736     16.1998     16.2528     15.7708    123.9252     -2.3333   1523.8560     62.3771     71.4540
    663.7020      8.7500      7.2380      8.8882      2.4911    100.5435     12.7349     15.4054     16.3460     16.4170     15.9517    123.6996     -8.8975   1517.3071     62.3267     70.9992
    663.8544      8.7500      7.2320      8.8751      2.4889    100.4499     12.8825     15.4069     16.3091     16.3920     15.9505    123.4795     -3.8797   1522.3447     62.2764     70.6341
    664.0068      8.7500      7.2260      8.8629      2.4866    100.4258     13.2455     15.5718     16.4132     16.5039     16.0849    123.2848      3.3785   1529.5781     62.2262     72.2152
    664.1592      8.7500      7.2199      8.8181      2.4843    100.2155     13.6845     15.7627     16.5320     16.6270     16.2325    123.1401      4.5116   1530.6726     62.1760     74.3069
    664.3116      8.7500      7.2137      8.7699      2.4820     99.9837     13.9123     15.7039     16.3963     16.4919     16.1275    123.0564      3.1486   1529.2924     62.1259     75.1317
    664.4640      8.7500      7.2075      8.7517      2.4795     99.6618     14.0253     15.5906     16.2209     16.3165     15.9823    123.0242      3.3654   1529.4791     62.0759     75.4097
    664.6164      8.7500      7.2012      8.7630      2.4770     99.3030     14.2121     15.6746     16.2664     16.3635     16.0542    122.9938      9.3975   1535.4421     62.0260     75.2130
    664.7688      8.7500      7.1948      8.8123      2.4744     99.2943     14.3965     15.8470     16.4131     16.5128     16.2250    122.8943     18.5626   1544.4993     61.9764     74.4312
    664.9212      8.7500      7.1885      8.8845      2.4719     99.8722     14.5155     15.9885     16.5296     16.6311     16.3627    122.7186     18.5139   1544.3142     61.9267     74.5728
    665.0736      8.7500      7.1823      8.9378      2.4694    100.9133     14.6859     16.1905     16.7064     16.8091     16.5567    122.5362      6.2395   1531.9207     61.8768     76.2869
    665.2260      8.7500      7.1760      8.9620      2.4670    101.7915     14.8781     16.3935     16.8856     16.9887     16.7500    122.3763     -3.5091   1522.1165     61.8263     76.9547
    665.3784      8.7500      7.1698      8.9845      2.4645    101.9612     14.8299     16.2901     16.7613     16.8643     16.6410    122.1764     -4.6548   1520.9740     61.7754     76.0873
    665.5308      8.7500      7.1637      9.0034      2.4622    101.4451     14.3805     15.7164     16.1723     16.2763     16.0719    121.8228      1.7169   1527.3745     61.7245     75.8022
    665.6832      8.7500      7.1575      8.9834      2.4598    101.0423     14.0370     15.2731     15.7321     15.8438     15.6579    121.2275     13.1590   1538.8010     61.6737     77.0092
    665.8356      8.7500      7.1515      8.9099      2.4575    101.2360     14.2267     15.4581     15.9480     16.0786     15.9097    120.4757     20.0423   1545.5781     61.6232     77.5144
    665.9880      8.7500      7.1454      8.8150      2.4552    101.5392     14.5903     15.8999     16.4420     16.5987     16.4409    119.8127     18.1711   1543.5466     61.5726     76.2481
    666.1404      8.7500      7.1394      8.7379      2.4530    101.7765     14.6763     16.1252     16.7517     16.9156     16.7533    119.4116     10.1779   1535.4055     61.5218     75.1770
    666.2928      8.7500      7.1334      8.6948      2.4508    102.0313     14.3938     16.0462     16.7699     16.9348     16.7790    119.2013     -5.0347   1520.1140     61.4709     74.3284
    666.4452      8.7500      7.1275      8.6962      2.4487    102.8063     13.7282     15.5995     16.4092     16.5719     16.4485    118.9012    -22.2215   1502.9890     61.4199     72.3361
    666.5976      8.7500      7.1216      8.7275      2.4466    103.6429     12.6182     14.5886     15.4325     15.5857     15.4929    118.2050    -28.9191   1496.4962     61.3685     71.8427
    666.7500      8.7500      7.1156      8.7431      2.4444    103.6543     11.2612     13.1205     13.9232     14.0578     13.9886    117.0049    -25.2938   1500.3738     61.3167     75.6914
    666.9024      8.7500      7.1095      8.7206      2.4421    102.3623     10.1344     11.7479     12.4644     12.5764     12.5219    115.4217    -22.0110   1503.8746     61.2649     84.2275
    667.0548      8.7500      7.1034      8.6766      2.4397    100.4484      9.6869     11.0509     11.6797     11.7772     11.7283    114.0303    -24.4568   1501.6279     61.2137     93.1492
    667.2072      8.7500      7.0972      8.6288      2.4373     99.0820     10.2550     11.4256     11.9935     12.0881     12.0363    113.7310    -26.0008   1500.3051     61.1635     95.4265
    667.3596      8.7500      7.0910      8.5846      2.4349     98.9118     11.9292     12.9413     13.4791     13.5787     13.5166    114.6774    -20.9914   1505.5342     61.1139     89.6893
    667.5120      8.7500      7.0847      8.5591      2.4324     99.8325     13.9209     14.7180     15.2340     15.3375     15.2630    116.0111    -15.1668   1511.5323     61.0645     81.2964
    667.6644      8.7500      7.0785      8.5508      2.4299    101.2390     14.7979     15.3169     15.7694     15.8929     15.8102    116.9829    -13.6856   1513.1472     61.0146     73.4928
    667.8168      8.7500      7.0723      8.5541      2.4276    102.3657     14.3563     14.6580     15.0494     15.1896     15.1051    117.4687    -15.0670   1511.8834     60.9639     67.7846
    667.9692      8.7500      7.0663      8.5609      2.4253    102.6129     13.8359     14.0287     14.3980     14.5385     14.4538    117.6172    -20.6241   1506.4645     60.9128     67.8371
    668.1216      8.7500      7.0603      8.5644      2.4232    102.0766     13.9417     14.1197     14.5008     14.6283     14.5400    117.7560    -29.5692   1497.7297     60.8614     71.4023
    668.2740      8.7500      7.0545      8.5609      2.4211    101.4729     14.1622     14.3982     14.7919     14.8928     14.8000    118.1427    -33.1926   1494.3802     60.8104     73.4984
    668.4264      8.7500      7.0487      8.5541      2.4191    101.3727     13.8626     14.2186     14.5790     14.6702     14.5789    118.6686    -26.3727   1501.4556     60.7597     74.4112
    668.5788      8.7500      7.0428      8.5497      2.4170    101.7397     13.3991     13.9251     14.2474     14.3283     14.2472    119.1051    -14.0421   1513.9626     60.7090     74.9265
    668.7312      8.7500      7.0369      8.5524      2.4149    102.0734     13.2590     13.9812     14.2765     14.3517     14.2755    119.4005     -5.7291   1522.3816     60.6581     72.4652
    668.8836      8.7500      7.0310      8.5632      2.4128    102.3054     13.3597     14.2394     14.5259     14.5904     14.5145    119.5932     -1.8412   1526.3340     60.6071     68.1676
    669.0360      8.7500      7.0252      8.5761      2.4107    102.3515     13.5855     14.5145     14.7963     14.8540     14.7627    119.6796     -1.5602   1526.6453     60.5559     66.9898
