~Version Information
 VERS.                2.00:   CWLS log ASCII Standard -VERSION 2.00
 WRAP.                  NO:   One line per frame      
~Well Information Block
#MNEM.UNIT                  Well Data                   Data Description
#----.----   ----------------------------------------   -------------------------------
 STRT.M                                      489.9660 : Starting Depth
 STOP.M                                      861.9744 : Ending Depth
 STEP.M                                        0.1524 : Level Spacing
 NULL.                                      -999.2500 : Absent Value
 COMP.       WINTERSHALL                              : Company
 WELL.       WIN.Nq.AF.WW-1                           : Well
 FLD .       AGUADA FEDERAL                           : Field
 LOC .                                                : Location
 CNTY.                                                : County
 STAT.                                                : State
 CTRY.       USA                                      : Country
 SRVC.       Baker Hughes                             : Service Company
 DATE.       24-Oct-2018                              : Log Date
 API .                                                : API Number
 UWI .                                                : Unique Well ID
~Curve Information Block
#MNEM    .UNIT        API Codes     Curve Description
#--------.--------   ------------   ---------------------------------------------------
 DEPT    .M          99 995 99  1 : Depth
 BIT     .IN         70 282  1  1 : Bit size
 BVOL    .M3         70 995 99  1 : Borehole volume
 CAL     .IN         70 280 99  1 : Caliper
 CVOL    .M3         70 995 99  1 : Cement volume
 DT24QI  .US/F       60 520 99  1 : Slowness over 24-inch interval
 M2R1    .OHMM        8 120 10  1 : Vertical 2-foot resolution matched resistivity, 10-inch DOI
 M2R2    .OHMM        8 120 20  1 : Vertical 2-foot resolution matched resistivity, 20-inch DOI
 M2R3    .OHMM        8 120 30  1 : Vertical 2-foot resolution matched resistivity, 30-inch DOI
 M2R6    .OHMM        8 120 60  1 : Vertical 2-foot resolution matched resistivity, 60-inch DOI
 M2R9    .OHMM        8 120 90  1 : Vertical 2-foot resolution matched resistivity, 90-inch DOI
 SP      .MV          1  10  1  1 : Spontaneous Potential
 TEN     .LBF        99 635 99  1 : Differential tension
 TTEN    .LBF        99 635 99  1 : Total tension
 TTQI    .MS         60 529 99  1 : Integrated traveltime from acoustic slowness
 GR      .GAPI       30 310  1  1 : Gamma ray
~Parameter Information Block
#MNEM.UNIT               Parameter Value                Parameter Description
#----.----   ----------------------------------------   -------------------------------
 LATI.DEG    0.0000                                   : Latitude
 LONG.DEG    0.0000                                   : Longitude
#  Curve Data
~A  DEPT        BIT         BVOL        CAL         CVOL        DT24QI      M2R1        M2R2        M2R3        M2R6        M2R9        SP          TEN         TTEN        TTQI        GR        
# ...
    803.6052      8.7500      1.9265      8.8105      0.6532     90.3232      8.7414      8.3763      8.2244      8.0923      7.9811     88.4556      9.5407   1687.9152     16.2872     96.3268
    803.7576      8.7500      1.9204      8.8143      0.6509     90.0958      9.1154      8.7184      8.5568      8.4231      8.3089     88.5328     11.8580   1690.1411     16.2420    101.3668
    803.9100      8.7500      1.9144      8.8159      0.6486     90.9871      9.0633      8.6683      8.5139      8.3855      8.2761     88.6076      3.6508   1681.8467     16.1970    108.9584
    804.0624      8.7500      1.9083      8.8257      0.6463     92.5239      8.7887      8.3987      8.2622      8.1402      8.0384     88.7011    -15.3151   1662.8915     16.1515    115.4175
    804.2148      8.7500      1.9022      8.8276      0.6441     94.2411      8.8091      8.3899      8.2670      8.1410      8.0385     88.7977    -29.9036   1648.4808     16.1052    116.4191
    804.3672      8.7500      1.8962      8.7964      0.6418     95.9806      8.9637      8.5214      8.4122      8.2770      8.1690     88.8815    -30.7321   1647.9336     16.0581    115.1745
    804.5196      8.7500      1.8902      8.7380      0.6396     97.5608      8.8014      8.4183      8.3308      8.1943      8.0858     88.9476    -22.8695   1656.0779     16.0101    114.3543
    804.6720      8.7500      1.8842      8.6861      0.6374     98.5579      8.3785      8.1314      8.0672      7.9370      7.8324     88.9815    -16.0597   1663.1021     15.9613    109.6992
    804.8244      8.7500      1.8783      8.6656      0.6352     98.9271      8.0393      7.9454      7.8992      7.7724      7.6706     88.9875    -18.1426   1661.1619     15.9120     98.1008
    804.9768      8.7500      1.8723      8.6684      0.6330     99.1054      7.9311      7.9682      7.9335      7.8030      7.7001     89.0003    -25.9025   1653.5552     15.8626     84.0978
    805.1292      8.7500      1.8663      8.6738      0.6309     99.5469      7.9981      8.1212      8.0945      7.9556      7.8479     89.0248    -29.7232   1649.9585     15.8130     73.4814
    805.2816      8.7500      1.8604      8.6714      0.6287    100.5359      8.0936      8.2491      8.2255      8.0807      7.9682     89.0557    -29.9783   1649.9758     15.7632     69.1036
    805.4340      8.7500      1.8544      8.6668      0.6265    101.9666      8.0884      8.2421      8.2169      8.0693      7.9551     89.1075    -27.9164   1652.3296     15.7130     69.4957
    805.5864      8.7500      1.8484      8.6645      0.6243    103.4944      8.0155      8.1609      8.1307      7.9825      7.8689     89.1538    -21.9725   1658.5576     15.6620     70.4064
    805.7388      8.7500      1.8424      8.6647      0.6221    104.4766      8.0400      8.1828      8.1463      7.9961      7.8814     89.1492    -12.8975   1667.8684     15.6102     70.8420
    805.8912      8.7500      1.8364      8.6684      0.6199    104.5396      8.2618      8.4051      8.3633      8.2077      8.0879     89.1005     -3.1067   1677.8176     15.5580     73.3498
    806.0436      8.7500      1.8304      8.6715      0.6177    104.0468      8.6511      8.8005      8.7586      8.5947      8.4671     89.0424      5.7087   1686.6991     15.5057     76.9824
    806.1960      8.7500      1.8244      8.6619      0.6154    103.8677      9.0247      9.1964      9.1629      8.9943      8.8612     89.0062      8.3669   1689.3304     15.4537     78.6594
    806.3484      8.7500      1.8184      8.6362      0.6132    104.2469      9.0630      9.2497      9.2350      9.0732      8.9471     89.0774      6.0984   1686.9705     15.4018     77.7426
    806.5008      8.7500      1.8125      8.6162      0.6111    104.7872      8.6246      8.8502      8.8581      8.7105      8.6026     89.3157      7.0167   1687.7795     15.3496     75.3773
    806.6532      8.7500      1.8066      8.6169      0.6090    105.0387      8.1578      8.4067      8.4319      8.2986      8.2038     89.6198      8.6139   1689.2905     15.2973     72.1347
    806.8056      8.7500      1.8008      8.6222      0.6070    105.2495      7.9836      8.2428      8.2781      8.1531      8.0658     89.8521      6.6448   1687.2751     15.2447     68.6798
    806.9580      8.7500      1.7950      8.6141      0.6050    105.7384      7.9795      8.2285      8.2652      8.1453      8.0619     90.0042      4.7497   1685.3284     15.1921     66.1874
    807.1104      8.7500      1.7892      8.6040      0.6030    106.6292      7.9389      8.1519      8.1832      8.0689      7.9886     90.1161      7.8513   1688.3284     15.1392     65.8135
    807.2628      8.7500      1.7834      8.6050      0.6009    107.6075      7.8938      8.0600      8.0836      7.9750      7.8974     90.1818      9.5151   1689.8457     15.0859     66.5834
    807.4152      8.7500      1.7776      8.6098      0.5989    108.0312      7.9716      8.0996      8.1172      8.0122      7.9363     90.1969      2.0301   1682.2535     15.0321     67.8307
    807.5676      8.7500      1.7718      8.6098      0.5969    107.4576      8.1918      8.2956      8.3098      8.2058      8.1295     90.1760     -3.3941   1676.8267     14.9781     69.9066
    807.7200      8.7500      1.7660      8.6040      0.5949    106.0699      8.4366      8.5282      8.5406      8.4365      8.3586     90.1246      3.9403   1684.1875     14.9244     71.8776
    807.8724      8.7500      1.7602      8.5956      0.5929    104.4961      8.5486      8.6383      8.6489      8.5451      8.4670     90.0547     14.8314   1695.0046     14.8713     70.4408
    808.0248      8.7500      1.7544      8.5832      0.5909    103.5805      8.5096      8.5799      8.5897      8.4870      8.4107     89.9892     16.1978   1696.1935     14.8191     66.9049
    808.1772      8.7500      1.7486      8.5591      0.5888    103.6085      8.4036      8.4561      8.4668      8.3654      8.2911     89.9443     11.7507   1691.5500     14.7673     65.8732
    808.3296      8.7500      1.7428      8.5202      0.5869    104.3205      8.3410      8.3798      8.3925      8.2912      8.2176     89.9221      7.0164   1686.6592     14.7155     67.4463
    808.4820      8.7500      1.7371      8.4761      0.5849    105.1832      8.3580      8.3914      8.4052      8.3029      8.2282     89.9329      5.3587   1684.9185     14.6633     68.4386
    808.6344      8.7500      1.7314      8.4585      0.5830    105.7707      8.4300      8.4736      8.4853      8.3817      8.3047     89.9768      8.5810   1688.1082     14.6108     68.3532
    808.7868      8.7500      1.7256      8.4858      0.5810    106.0783      8.4716      8.5407      8.5469      8.4437      8.3649     90.0074     11.6425   1691.1161     14.5579     68.1930
    808.9392      8.7500      1.7199      8.5359      0.5791    106.2457      8.4113      8.5104      8.5101      8.4092      8.3305     89.9616     10.6058   1689.9800     14.5048     68.4604
    809.0916      8.7500      1.7142      8.5709      0.5771    106.5695      8.3362      8.4399      8.4354      8.3363      8.2586     89.8555      8.0569   1687.3311     14.4517     69.9293
    809.2440      8.7500      1.7085      8.5825      0.5752    107.0805      8.3432      8.4585      8.4544      8.3541      8.2754     89.7755      6.2336   1685.4417     14.3984     71.4228
    809.3964      8.7500      1.7027      8.5847      0.5732    107.4284      8.4240      8.5486      8.5492      8.4446      8.3634     89.7718      1.3992   1680.5685     14.3449     69.8839
    809.5488      8.7500      1.6970      8.5847      0.5713    107.3733      8.4096      8.5427      8.5502      8.4406      8.3578     89.8139     -6.7135   1672.4575     14.2912     66.1865
    809.7012      8.7500      1.6913      8.5847      0.5694    106.7372      8.2112      8.3526      8.3653      8.2528      8.1704     89.8648    -16.8139   1662.4478     14.2375     63.5984
    809.8536      8.7500      1.6856      8.5862      0.5674    105.7863      7.8909      8.0355      8.0484      7.9358      7.8551     89.9286    -23.8033   1655.6663     14.1841     63.5412
