~Version Information
 VERS.                2.00:   CWLS log ASCII Standard -VERSION 2.00
 WRAP.                  NO:   One line per frame      
~Well Information Block
#MNEM.UNIT                  Well Data                   Data Description
#----.----   ----------------------------------------   -------------------------------
 STRT.M                                      489.9660 : Starting Depth
 STOP.M                                      861.9744 : Ending Depth
 STEP.M                                        0.1524 : Level Spacing
 NULL.                                      -999.2500 : Absent Value
 COMP.       WINTERSHALL                              : Company
 WELL.       WIN.Nq.AF.WW-1                           : Well
 FLD .       AGUADA FEDERAL                           : Field
 LOC .                                                : Location
 CNTY.                                                : County
 STAT.                                                : State
 CTRY.       USA                                      : Country
 SRVC.       Baker Hughes                             : Service Company
 DATE.       24-Oct-2018                              : Log Date
 API .                                                : API Number
 UWI .                                                : Unique Well ID
~Curve Information Block
#MNEM    .UNIT        API Codes     Curve Description
#--------.--------   ------------   ---------------------------------------------------
 DEPT    .M          99 995 99  1 : Depth
 BIT     .IN         70 282  1  1 : Bit size
 BVOL    .M3         70 995 99  1 : Borehole volume
 CAL     .IN         70 280 99  1 : Caliper
 CVOL    .M3         70 995 99  1 : Cement volume
 DT24QI  .US/F       60 520 99  1 : Slowness over 24-inch interval
 M2R1    .OHMM        8 120 10  1 : Vertical 2-foot resolution matched resistivity, 10-inch DOI
 M2R2    .OHMM        8 120 20  1 : Vertical 2-foot resolution matched resistivity, 20-inch DOI
 M2R3    .OHMM        8 120 30  1 : Vertical 2-foot resolution matched resistivity, 30-inch DOI
 M2R6    .OHMM        8 120 60  1 : Vertical 2-foot resolution matched resistivity, 60-inch DOI
 M2R9    .OHMM        8 120 90  1 : Vertical 2-foot resolution matched resistivity, 90-inch DOI
 SP      .MV          1  10  1  1 : Spontaneous Potential
 TEN     .LBF        99 635 99  1 : Differential tension
 TTEN    .LBF        99 635 99  1 : Total tension
 TTQI    .MS         60 529 99  1 : Integrated traveltime from acoustic slowness
 GR      .GAPI       30 310  1  1 : Gamma ray
~Parameter Information Block
#MNEM.UNIT               Parameter Value                Parameter Description
#----.----   ----------------------------------------   -------------------------------
 LATI.DEG    0.0000                                   : Latitude
 LONG.DEG    0.0000                                   : Longitude
#  Curve Data
~A  DEPT        BIT         BVOL        CAL         CVOL        DT24QI      M2R1        M2R2        M2R3        M2R6        M2R9        SP          TEN         TTEN        TTQI        GR        
# ...
    829.2084      8.7500      0.9566      8.6592      0.3190    100.7512      9.1222      8.9059      8.7392      8.6190      8.4999     87.4627    -36.8480   1669.5935      7.6967     67.3617
    829.3608      8.7500      0.9508      8.6568      0.3170    100.6460      9.2226      8.9294      8.7508      8.6357      8.5191     87.4142    -43.7107   1663.1292      7.6463     70.3942
    829.5132      8.7500      0.9450      8.6565      0.3150    101.1857      9.1770      8.8352      8.6535      8.5465      8.4371     87.3763    -47.7440   1659.5215      7.5960     74.6958
    829.6656      8.7500      0.9392      8.6565      0.3130    102.2034      9.1524      8.7663      8.5850      8.4847      8.3835     87.3564    -44.6899   1663.0000      7.5454     77.4544
    829.8180      8.7500      0.9334      8.6565      0.3109    103.2460      9.2432      8.7934      8.6139      8.5180      8.4240     87.3606    -37.0502   1671.0295      7.4943     76.7248
    829.9704      8.7500      0.9276      8.6563      0.3089    103.8337      9.3357      8.8115      8.6397      8.5476      8.4620     87.3785    -34.6344   1673.8013      7.4427     75.1452
    830.1228      8.7500      0.9218      8.6550      0.3069    103.9522      9.1727      8.6151      8.4650      8.3811      8.3075     87.4118    -38.4162   1670.3833      7.3908     74.1907
    830.2752      8.7500      0.9160      8.6539      0.3049    104.0246      8.6685      8.1530      8.0360      7.9655      7.9062     87.4775    -39.7384   1669.4451      7.3388     72.1043
    830.4276      8.7500      0.9102      8.6511      0.3029    104.5114      8.1165      7.6789      7.5942      7.5376      7.4897     87.5580    -38.9122   1670.6482      7.2868     69.4682
    830.5800      8.7500      0.9044      8.6406      0.3008    105.5399      7.7824      7.4134      7.3538      7.3088      7.2670     87.6188    -42.1995   1667.7424      7.2345     68.3773
    830.7324      8.7500      0.8986      8.6252      0.2988    106.5745      7.6521      7.3329      7.2924      7.2550      7.2174     87.6308    -43.4587   1666.9016      7.1818     67.6299
    830.8848      8.7500      0.8928      8.6148      0.2968    107.1836      7.6525      7.3646      7.3385      7.3051      7.2708     87.5780    -34.3707   1676.4006      7.1285     66.9797
    831.0372      8.7500      0.8870      8.6122      0.2948    107.3373      7.7402      7.4698      7.4538      7.4249      7.3878     87.4827    -16.2136   1694.8420      7.0749     66.9541
    831.1896      8.7500      0.8812      8.6157      0.2928    107.4138      7.8410      7.5916      7.5830      7.5552      7.5127     87.3942      0.5650   1711.7070      7.0212     66.8064
    831.3420      8.7500      0.8754      8.6246      0.2908    107.4858      7.8552      7.6556      7.6539      7.6216      7.5735     87.3350      7.4795   1718.5668      6.9675     66.9029
    831.4944      8.7500      0.8696      8.6353      0.2888    107.2216      7.7353      7.6263      7.6329      7.5907      7.5386     87.2939     -0.0650   1710.9666      6.9138     67.3631
    831.6468      8.7500      0.8638      8.6450      0.2868    106.0903      7.5177      7.5258      7.5414      7.4863      7.4324     87.2589    -14.0722   1697.0232      6.8602     67.2640
    831.7992      8.7500      0.8581      8.6507      0.2848    104.2690      7.3000      7.4106      7.4342      7.3646      7.3107     87.2205    -20.7681   1690.5049      6.8071     66.3379
    831.9516      8.7500      0.8523      8.6499      0.2828    102.7794      7.1227      7.3288      7.3566      7.2757      7.2208     87.1774    -16.4823   1694.9775      6.7550     65.2295
    832.1040      8.7500      0.8465      8.6459      0.2808    102.5579      7.0014      7.2709      7.2979      7.2103      7.1537     87.1285    -13.0264   1698.5837      6.7036     64.8114
    832.2564      8.7500      0.8407      8.6446      0.2788    103.3864      6.9151      7.2166      7.2380      7.1445      7.0901     87.0702    -13.4998   1698.2886      6.6523     65.0647
    832.4088      8.7500      0.8349      8.6457      0.2768    104.4457      6.8735      7.1796      7.1922      7.0964      7.0441     87.0018    -14.9670   1697.0425      6.6006     64.4444
    832.5612      8.7500      0.8291      8.6492      0.2748    104.7925      6.8794      7.1633      7.1645      7.0701      7.0182     86.9311    -22.0833   1690.1666      6.5484     64.4526
    832.7136      8.7500      0.8234      8.6511      0.2728    104.2628      6.9324      7.1636      7.1509      7.0605      7.0068     86.8622    -35.2308   1677.3054      6.4960     67.1983
    832.8660      8.7500      0.8177      8.6465      0.2709    103.2225      7.0692      7.2147      7.1839      7.0986      7.0416     86.7854    -45.2652   1667.6370      6.4439     70.5716
    833.0184      8.7500      0.8119      8.6398      0.2689    102.5055      7.3410      7.3838      7.3298      7.2498      7.1873     86.6966    -45.2590   1668.0664      6.3923     73.7517
    833.1708      8.7500      0.8062      8.6413      0.2670    102.3434      7.7638      7.6741      7.5922      7.5135      7.4432     86.6041    -39.4033   1674.3422      6.3410     79.0162
    833.3232      8.7500      0.8005      8.6533      0.2650    101.8297      8.1535      7.9512      7.8440      7.7646      7.6881     86.4968    -35.6965   1678.4287      6.2898     86.7740
    833.4756      8.7500      0.7947      8.6736      0.2631    100.0312      8.4326      8.1970      8.0771      7.9920      7.9122     86.3608    -36.8463   1677.6228      6.2389     94.5733
    833.6280      8.7500      0.7889      8.7029      0.2611     97.2067      8.7810      8.6230      8.5030      8.3963      8.3120     86.2340    -35.6618   1679.1451      6.1889    101.4536
    833.7804      8.7500      0.7832      8.7436      0.2591     94.8573      8.9872      9.0276      8.9320      8.7847      8.6979     86.1910    -29.5480   1685.5822      6.1403    106.7529
    833.9328      8.7500      0.7774      8.7776      0.2571     94.0998      8.3112      8.5468      8.5050      8.3493      8.2804     86.2402    -29.4269   1686.0034      6.0929    107.1215
    834.0852      8.7500      0.7716      8.7901      0.2551     94.4330      6.8882      7.2249      7.2263      7.0693      7.0204     86.3139    -35.0641   1680.6865      6.0458    102.1441
    834.2376      8.7500      0.7658      8.7939      0.2531     94.5764      5.7086      6.0331      6.0531      5.9046      5.8683     86.3457    -36.4531   1679.6685      5.9986     95.7775
    834.3900      8.7500      0.7601      8.8023      0.2511     93.7675      5.1309      5.4085      5.4319      5.2876      5.2571     86.2913    -33.1207   1683.4026      5.9513     88.9983
    834.5424      8.7500      0.7543      8.8074      0.2491     92.4083      5.0000      5.2140      5.2283      5.0836      5.0541     86.1248    -28.8193   1688.1096      5.9044     79.5578
    834.6948      8.7500      0.7485      8.7992      0.2471     91.2900      5.1119      5.2455      5.2405      5.0956      5.0653     85.8699    -26.2167   1691.0969      5.8582     70.7339
    834.8472      8.7500      0.7427      8.7756      0.2451     90.8962      5.3515      5.4004      5.3702      5.2275      5.1924     85.5883    -29.5509   1688.1243      5.8126     67.7909
    834.9996      8.7500      0.7370      8.7517      0.2432     90.9450      5.6812      5.6466      5.5887      5.4476      5.4056     85.3093    -34.4073   1683.6370      5.7671     71.1235
    835.1520      8.7500      0.7312      8.7417      0.2412     90.8823      6.0437      5.9475      5.8636      5.7294      5.6779     85.0564    -36.7733   1681.6458      5.7217     79.4431
    835.3044      8.7500      0.7254      8.7329      0.2392     90.5555      6.4215      6.2959      6.1914      6.0682      6.0045     84.8787    -39.6022   1679.1787      5.6762     89.2631
    835.4568      8.7500      0.7196      8.7109      0.2372     90.1573      6.8573      6.7302      6.6099      6.4987      6.4189     84.7924    -39.2505   1679.8840      5.6309     97.3914
