~Version Information
 VERS.                2.00:   CWLS log ASCII Standard -VERSION 2.00
 WRAP.                  NO:   One line per frame      
~Well Information Block
#MNEM.UNIT                  Well Data                   Data Description
#----.----   ----------------------------------------   -------------------------------
 STRT.M                                      489.9660 : Starting Depth
 STOP.M                                      861.9744 : Ending Depth
 STEP.M                                        0.1524 : Level Spacing
 NULL.                                      -999.2500 : Absent Value
 COMP.       WINTERSHALL                              : Company
 WELL.       WIN.Nq.AF.WW-1                           : Well
 FLD .       AGUADA FEDERAL                           : Field
 LOC .                                                : Location
 CNTY.                                                : County
 STAT.                                                : State
 CTRY.       USA                                      : Country
 SRVC.       Baker Hughes                             : Service Company
 DATE.       24-Oct-2018                              : Log Date
 API .                                                : API Number
 UWI .                                                : Unique Well ID
~Curve Information Block
#MNEM    .UNIT        API Codes     Curve Description
#--------.--------   ------------   ---------------------------------------------------
 DEPT    .M          99 995 99  1 : Depth
 BIT     .IN         70 282  1  1 : Bit size
 BVOL    .M3         70 995 99  1 : Borehole volume
 CAL     .IN         70 280 99  1 : Caliper
 CVOL    .M3         70 995 99  1 : Cement volume
 DT24QI  .US/F       60 520 99  1 : Slowness over 24-inch interval
 M2R1    .OHMM        8 120 10  1 : Vertical 2-foot resolution matched resistivity, 10-inch DOI
 M2R2    .OHMM        8 120 20  1 : Vertical 2-foot resolution matched resistivity, 20-inch DOI
 M2R3    .OHMM        8 120 30  1 : Vertical 2-foot resolution matched resistivity, 30-inch DOI
 M2R6    .OHMM        8 120 60  1 : Vertical 2-foot resolution matched resistivity, 60-inch DOI
 M2R9    .OHMM        8 120 90  1 : Vertical 2-foot resolution matched resistivity, 90-inch DOI
 SP      .MV          1  10  1  1 : Spontaneous Potential
 TEN     .LBF        99 635 99  1 : Differential tension
 TTEN    .LBF        99 635 99  1 : Total tension
 TTQI    .MS         60 529 99  1 : Integrated traveltime from acoustic slowness
 GR      .GAPI       30 310  1  1 : Gamma ray
~Parameter Information Block
#MNEM.UNIT               Parameter Value                Parameter Description
#----.----   ----------------------------------------   -------------------------------
 LATI.DEG    0.0000                                   : Latitude
 LONG.DEG    0.0000                                   : Longitude
#  Curve Data
~A  DEPT        BIT         BVOL        CAL         CVOL        DT24QI      M2R1        M2R2        M2R3        M2R6        M2R9        SP          TEN         TTEN        TTQI        GR        
# ...
    585.9780      8.7500     10.2557      8.8290      3.5791     86.7153      6.7168      6.5237      6.3620      6.2917      6.3262     91.3800      9.0952   1472.4315     85.8268     56.1189
    586.1304      8.7500     10.2502      8.7558      3.5773     87.1909      7.0480      6.6562      6.4401      6.3536      6.3919     88.8713      9.2955   1472.5161     85.7834     49.1845
    586.2828      8.7500     10.2442      8.7057      3.5751     88.0064      7.2065      6.6184      6.3574      6.2558      6.2957     86.6017      0.2468   1463.3712     85.7398     44.3203
    586.4352      8.7500     10.2378      8.6806      3.5725     88.6923      7.1716      6.4387      6.1489      6.0360      6.0754     84.8334     -3.2989   1459.8048     85.6958     43.0401
    586.5876      8.7500     10.2312      8.6731      3.5696     89.1125      7.0616      6.2285      5.9202      5.7995      5.8372     83.4765      1.5557   1464.6860     85.6515     44.0487
    586.7400      8.7500     10.2245      8.6751      3.5667     89.3376      6.9788      6.0594      5.7367      5.6104      5.6457     82.4038      4.3980   1467.5566     85.6069     45.0610
    586.8924      8.7500     10.2178      8.6761      3.5638     89.4096      6.9857      5.9725      5.6351      5.5036      5.5365     81.5687      1.5864   1464.7673     85.5622     45.1147
    587.0448      8.7500     10.2113      8.6766      3.5611     89.3377      7.0627      5.9573      5.6057      5.4696      5.4993     80.9985     -3.5845   1459.6342     85.5175     44.0110
    587.1972      8.7500     10.2051      8.6814      3.5587     89.1863      7.1060      5.9498      5.5915      5.4542      5.4792     80.7026     -9.0590   1454.2279     85.4729     42.5028
    587.3496      8.7500     10.1990      8.6885      3.5564     89.0015      7.0613      5.9172      5.5621      5.4278      5.4460     80.5922    -13.8799   1449.5078     85.4283     42.5912
    587.5020      8.7500     10.1930      8.6919      3.5541     88.7472      6.9964      5.8976      5.5486      5.4193      5.4297     80.5826    -12.6744   1450.8242     85.3838     44.1356
    587.6544      8.7500     10.1869      8.6921      3.5518     88.3645      6.9889      5.9277      5.5808      5.4563      5.4578     80.6768     -9.9796   1453.6104     85.3394     43.6036
    587.8068      8.7500     10.1808      8.6919      3.5495     88.0041      7.0404      5.9925      5.6442      5.5242      5.5162     80.9330    -12.7089   1450.9679     85.2952     40.4382
    587.9592      8.7500     10.1747      8.6885      3.5472     87.8763      7.1824      6.1098      5.7542      5.6371      5.6192     81.3315    -17.1920   1446.6117     85.2512     38.8629
    588.1116      8.7500     10.1688      8.6814      3.5451     87.8676      7.4490      6.3137      5.9430      5.8256      5.7972     81.7426    -16.9189   1447.0472     85.2073     40.0698
    588.2640      8.7500     10.1629      8.6766      3.5430     87.6079      7.6890      6.5161      6.1350      6.0171      5.9784     82.1436    -15.6071   1448.5170     85.1633     41.1699
    588.4164      8.7500     10.1571      8.6751      3.5409     87.0979      7.6931      6.5819      6.2132      6.0985      6.0521     82.7185    -12.8130   1451.4498     85.1195     41.2250
    588.5688      8.7500     10.1513      8.6699      3.5389     86.8139      7.5027      6.5260      6.1902      6.0820      6.0311     83.6393     -8.7333   1455.6306     85.0760     41.7569
    588.7212      8.7500     10.1455      8.6517      3.5369     87.3063      7.3494      6.4928      6.1927      6.0901      6.0364     84.8226     -9.4856   1454.9540     85.0326     42.9698
    588.8736      8.7500     10.1397      8.6055      3.5349     88.4218      7.3400      6.5546      6.2860      6.1871      6.1308     86.0111    -12.6528   1451.8823     84.9889     44.1926
    589.0260      8.7500     10.1338      8.5245      3.5328     89.6288      7.3355      6.6104      6.3777      6.2845      6.2275     87.0720     -9.8977   1454.7577     84.9447     44.3107
    589.1784      8.7500     10.1280      8.4377      3.5308     90.3674      7.1868      6.5607      6.3740      6.2919      6.2375     88.0936      0.4958   1465.2255     84.8999     44.7296
    589.3308      8.7500     10.1222      8.4193      3.5288     90.1726      6.9526      6.4715      6.3349      6.2671      6.2172     89.4290      8.6674   1473.3618     84.8547     47.2557
    589.4832      8.7500     10.1164      8.5247      3.5267     89.5941      6.7374      6.4364      6.3493      6.2962      6.2506     91.6358      6.4994   1471.0912     84.8096     49.3535
    589.6356      8.7500     10.1105      8.6924      3.5247     89.4609      6.5781      6.4772      6.4386      6.3973      6.3571     94.4443     -1.3212   1463.2117     84.7648     50.4491
    589.7880      8.7500     10.1047      8.8017      3.5226     89.9793      6.4773      6.5619      6.5689      6.5358      6.5010     96.6387     -3.5855   1460.9648     84.7201     52.9932
    589.9404      8.7500     10.0989      8.8260      3.5206     90.5849      6.4255      6.6730      6.7089      6.6843      6.6507     97.5492     -0.1924   1464.3813     84.6751     54.8456
    590.0928      8.7500     10.0930      8.8239      3.5185     90.5880      6.4325      6.7606      6.8198      6.7984      6.7647     97.6416      3.4083   1467.9667     84.6298     53.5831
    590.2452      8.7500     10.0872      8.8278      3.5165     90.1763      6.4271      6.7490      6.8142      6.7906      6.7553     97.3465      3.8554   1468.3752     84.5845     52.9467
    590.3976      8.7500     10.0814      8.8330      3.5145     89.4880      6.4374      6.6890      6.7456      6.7158      6.6776     96.7663      8.3447   1472.8113     84.5394     53.4875
    590.5500      8.7500     10.0756      8.8330      3.5124     88.6800      6.6041      6.7585      6.8065      6.7677      6.7255     95.9611     22.1414   1486.4976     84.4947     51.8135
    590.7024      8.7500     10.0698      8.8330      3.5104     87.8551      6.8855      6.9635      6.9988      6.9496      6.9021     95.1275     30.8156   1494.9850     84.4503     48.2794
    590.8548      8.7500     10.0641      8.8342      3.5085     87.3630      7.0701      7.1232      7.1484      7.0889      7.0359     94.5256     19.1069   1483.0924     84.4064     46.2118
    591.0072      8.7500     10.0584      8.8376      3.5066     87.2020      7.0704      7.1632      7.1867      7.1189      7.0640     94.3346     -2.0090   1461.9078     84.3627     46.2063
    591.1596      8.7500     10.0529      8.8476      3.5049     87.6208      6.8173      6.9893      7.0180      6.9449      6.8905     94.5284    -13.2628   1450.7142     84.3191     46.4015
    591.3120      8.7500     10.0474      8.8523      3.5032     88.6739      6.4057      6.6415      6.6770      6.6010      6.5495     94.9005    -13.4025   1450.6663     84.2753     46.6241
    591.4644      8.7500     10.0419      8.8379      3.5014     89.8913      6.1442      6.3978      6.4369      6.3580      6.3079     95.2322    -13.2575   1450.8546     84.2310     48.0789
    591.6168      8.7500     10.0361      8.8143      3.4994     90.4004      6.1463      6.3697      6.4072      6.3232      6.2716     95.4748    -12.1086   1452.0195     84.1860     49.0072
    591.7692      8.7500     10.0301      8.7949      3.4973     90.0710      6.3551      6.5188      6.5481      6.4535      6.4013     95.7374     -8.0479   1456.1044     84.1408     47.8488
    591.9216      8.7500     10.0241      8.7793      3.4950     89.5693      6.5904      6.6965      6.7119      6.6066      6.5528     96.2775     -9.3313   1454.8662     84.0958     48.4323
    592.0740      8.7500     10.0181      8.7795      3.4928     89.4490      6.3779      6.4603      6.4592      6.3515      6.3010     97.4359    -17.1295   1447.1654     84.0510     55.2987
    592.2264      8.7500     10.0121      8.8020      3.4906     89.4897      5.6667      5.7293      5.7143      5.6218      5.5823     99.0074    -22.1071   1442.3575     84.0063     65.9787
