~Version Information
 VERS.                2.00:   CWLS log ASCII Standard -VERSION 2.00
 WRAP.                  NO:   One line per frame      
~Well Information Block
#MNEM.UNIT                  Well Data                   Data Description
#----.----   ----------------------------------------   -------------------------------
 STRT.M                                      489.9660 : Starting Depth
 STOP.M                                      861.9744 : Ending Depth
 STEP.M                                        0.1524 : Level Spacing
 NULL.                                      -999.2500 : Absent Value
 COMP.       WINTERSHALL                              : Company
 WELL.       WIN.Nq.AF.WW-1                           : Well
 FLD .       AGUADA FEDERAL                           : Field
 LOC .                                                : Location
 CNTY.                                                : County
 STAT.                                                : State
 CTRY.       USA                                      : Country
 SRVC.       Baker Hughes                             : Service Company
 DATE.       24-Oct-2018                              : Log Date
 API .                                                : API Number
 UWI .                                                : Unique Well ID
~Curve Information Block
#MNEM    .UNIT        API Codes     Curve Description
#--------.--------   ------------   ---------------------------------------------------
 DEPT    .M          99 995 99  1 : Depth
 BIT     .IN         70 282  1  1 : Bit size
 BVOL    .M3         70 995 99  1 : Borehole volume
 CAL     .IN         70 280 99  1 : Caliper
 CVOL    .M3         70 995 99  1 : Cement volume
 DT24QI  .US/F       60 520 99  1 : Slowness over 24-inch interval
 M2R1    .OHMM        8 120 10  1 : Vertical 2-foot resolution matched resistivity, 10-inch DOI
 M2R2    .OHMM        8 120 20  1 : Vertical 2-foot resolution matched resistivity, 20-inch DOI
 M2R3    .OHMM        8 120 30  1 : Vertical 2-foot resolution matched resistivity, 30-inch DOI
 M2R6    .OHMM        8 120 60  1 : Vertical 2-foot resolution matched resistivity, 60-inch DOI
 M2R9    .OHMM        8 120 90  1 : Vertical 2-foot resolution matched resistivity, 90-inch DOI
 SP      .MV          1  10  1  1 : Spontaneous Potential
 TEN     .LBF        99 635 99  1 : Differential tension
 TTEN    .LBF        99 635 99  1 : Total tension
 TTQI    .MS         60 529 99  1 : Integrated traveltime from acoustic slowness
 GR      .GAPI       30 310  1  1 : Gamma ray
~Parameter Information Block
#MNEM.UNIT               Parameter Value                Parameter Description
#----.----   ----------------------------------------   -------------------------------
 LATI.DEG    0.0000                                   : Latitude
 LONG.DEG    0.0000                                   : Longitude
#  Curve Data
~A  DEPT        BIT         BVOL        CAL         CVOL        DT24QI      M2R1        M2R2        M2R3        M2R6        M2R9        SP          TEN         TTEN        TTQI        GR        
    489.9660      8.7500     14.1966      8.7974      5.1361     54.3174      0.9245      8.1971    899.2851   1055.1815   1238.1143    147.8550     -9.8580   1339.9797    113.4450     43.0664
    490.1184      8.7500     14.1906      8.8427      5.1338     54.3974      0.9404      8.0951    799.8116    960.7226   1154.0286    147.7438    -12.6318   1337.2623    113.4179     41.1765
    490.2708      8.7500     14.1845      8.8586      5.1316     54.4083      0.9805      9.7813    640.9595    804.7615   1010.4683    147.2829    -11.3939   1338.5627    113.3907     40.8706
    490.4232      8.7500     14.1785      8.8655      5.1294     54.2590      1.0745     19.9980    440.6948    568.2943    778.3777    146.6637     -8.1683   1341.8467    113.3635     41.3564
    490.5756      8.7500     14.1726      8.8678      5.1272     53.9787      1.2481  10000.0000    400.0000    500.0000    707.1068    145.9937     -9.0751   1340.9994    113.3363     41.1417
    490.7280      8.7500     14.1667      8.8711      5.1251     53.7167      1.4899  10000.0000    503.6266    503.6095    707.1068    145.3073    -12.0453   1338.1111    113.3094     40.6820
    490.8804      8.7500     14.1610      8.8732      5.1231     53.6311      1.6941  10000.0000    988.5162    988.4822    988.4820    144.6281    -12.4247   1337.8287    113.2825     40.6775
    491.0328      8.7500     14.1552      8.8715      5.1212     53.7700      1.7652  10000.0000   1417.3384   1417.2894   1417.2892    143.9581    -11.3197   1339.0192    113.2557     41.2886
    491.1852      8.7500     14.1496      8.8730      5.1193     54.0328      1.7677   9412.0117   1683.8403   1683.7822   1683.7820    143.2568     -8.8603   1341.5404    113.2288     41.8890
    491.3376      8.7500     14.1440      8.8829      5.1175     54.2466      1.7902   4553.3198   1825.3252   1825.2621   1825.2618    142.4735     -5.9506   1344.4828    113.2018     41.7228
    491.4900      8.7500     14.1384      8.8951      5.1158     54.3232      1.8408   3225.2019   1896.6251   1896.5596   1896.5596    141.6074     -5.0946   1345.3619    113.1747     41.0772
    491.6424      8.7500     14.1328      8.9018      5.1139     54.3165      1.8883   2841.7341   1923.4889   1923.4225   1923.4222    140.6923     -2.6544   1347.8385    113.1475     40.3035
    491.7948      8.7500     14.1270      8.8995      5.1119     54.3526      1.9165   2872.9971   1921.1519   1921.0854   1921.0854    139.7447      1.1509   1351.6809    113.1203     39.1056
    491.9472      8.7500     14.1211      8.8897      5.1097     54.4657      1.9354   3157.2737   1901.1165   1901.0508   1901.0505    138.8009     -2.8678   1347.6932    113.0932     38.3536
    492.0996      8.7500     14.1150      8.8826      5.1075     54.5585      1.9243   3667.2495   1869.7494   1869.6847   1869.6846    137.9434    -12.7223   1337.8973    113.0659     39.3439
    492.2520      8.7500     14.1090      8.8886      5.1052     54.5087      1.8348   4646.1748   1821.2358   1821.1729   1821.1726    137.2314    -13.9443   1336.7693    113.0387     41.1759
    492.4044      8.7500     14.1029      8.9064      5.1029     54.3188      1.6738   7229.3110   1733.9343   1733.8744   1733.8744    136.6064     -7.9306   1342.8759    113.0114     42.2175
    492.5568      8.7500     14.0968      8.9240      5.1006     54.0861      1.4949  10000.0000   1558.1815   1558.1276   1558.1276    135.9398     -7.4403   1343.4520    112.9842     42.6543
    492.7092      8.7500     14.0908      8.9331      5.0983     53.8571      1.3450  10000.0000   1224.0229   1223.9805   1223.9805    135.1410    -13.2680   1337.7378    112.9572     43.3409
    492.8616      8.7500     14.0847      8.9341      5.0960     53.6327      1.2445  10000.0000    732.6819    732.6565    732.6565    134.1911    -14.5170   1336.6353    112.9303     43.8068
    493.0140      8.7500     14.0786      8.9308      5.0937     53.4399      1.1651  10000.0000    400.0000    500.0000    707.1068    133.1050    -11.7167   1339.5713    112.9034     44.1428
    493.1664      8.7500     14.0725      8.9287      5.0915     53.3463      1.0666    106.1202    413.8199    523.6959    732.0941    131.8770    -10.8637   1340.5398    112.8767     44.1941
    493.3188      8.7500     14.0664      8.9308      5.0891     53.3469      0.9483     18.9472    729.5846    892.6355   1092.1018    130.4363     -6.9076   1344.5929    112.8501     43.1164
    493.4712      8.7500     14.0603      8.9341      5.0868     53.3605      0.8404      9.5066   1038.5024   1183.9727   1349.7823    128.6888     -0.8462   1350.7028    112.8234     41.5244
    493.6236      8.7500     14.0542      8.9351      5.0845     53.3407      0.7584      6.3728   1273.9244   1394.2184   1525.8281    126.6987     -2.6852   1348.8773    112.7967     41.3966
    493.7760      8.7500     14.0481      8.9353      5.0822     53.3458      0.7002      4.8236   1465.8080   1559.8290    431.0560    124.7162     -7.8557   1343.7439    112.7700     41.6288
    493.9284      8.7500     14.0420      8.9376      5.0798     53.4205      0.6469      3.6329   1624.7896   1693.7563     96.4374    122.9303     -9.2010   1342.4611    112.7434     40.4668
    494.0808      8.7500     14.0359      8.9421      5.0775     53.5401      0.5699      2.6078   1720.2572   1657.4839     50.8115    121.3270    -11.3933   1340.3420    112.7166     39.0058
    494.2332      8.7500     14.0298      8.9489      5.0752     53.7492      0.4701      1.8333   1817.1184     47.3714     19.3912    119.8095    -11.8540   1339.9590    112.6899     38.3206
    494.3856      8.7500     14.0237      8.9577      5.0729     54.3605      0.3759      1.3449   1864.2460     20.9570     11.1223    118.3132     -5.3658   1346.4980    112.6630     38.1815
    494.5380      8.7500     14.0175      8.9655      5.0705     55.8177      0.3023      1.0614   1887.3557     14.1883      8.0825    116.8247      0.3552   1352.2410    112.6358     39.2581
    494.6904      8.7500     14.0114      8.9688      5.0681     57.7119      0.2478      0.9013   1898.3534     11.9993      6.8518    115.3880     -1.3910   1350.5240    112.6079     40.8003
    494.8428      8.7500     14.0052      8.9690      5.0658     58.8014      0.2110      0.8277   1902.9349     11.7935      6.4851    114.0724     -5.3972   1346.5508    112.5790     41.1945
    494.9952      8.7500     13.9990      8.9692      5.0634     57.8313      0.1919      0.8329   1903.9225     13.1984      6.8069    112.9283     -8.0938   1343.8796    112.5496     41.7585
    495.1476      8.7500     13.9929      8.9717      5.0610     56.0481      0.1871      0.8969   1903.8196     15.7165      7.5772    111.9786    -11.8213   1340.1968    112.5207     43.7433
    495.3000      8.7500     13.9867      8.9774      5.0586     55.0359      0.1886      0.9604   1903.6606     18.2677      8.3958    111.1945    -17.2547   1334.8528    112.4927     44.9467
    495.4524      8.7500     13.9806      8.9830      5.0563     55.7347      0.1867      0.9462   1903.5146     19.2806      8.7228    110.4817    -20.6993   1331.5433    112.4652     44.2396
    495.6048      8.7500     13.9744      8.9830      5.0539     57.2872      0.1780      0.8628   1901.1460     20.1038      9.0334    109.7355    -18.9415   1333.4581    112.4373     43.0880
    495.7572      8.7500     13.9682      8.9774      5.0515     58.0904      0.1679      0.7825   1892.9661     25.6067     10.9637    108.9290    -13.3540   1339.1803    112.4087     41.4746
    495.9096      8.7500     13.9621      8.9717      5.0491     56.8471      0.1624      0.7538   1870.8435     96.8521     24.2923    108.1192     -7.2513   1345.3668    112.3796     39.3896
    496.0620      8.7500     13.9559      8.9694      5.0467     54.9116      0.1622      0.7806   1846.2095   1876.0447   1906.2924    107.3535     -4.6722   1347.9821    112.3512     38.2820
    496.2144      8.7500     13.9497      8.9727      5.0443     53.7580      0.1662      0.8596   1833.4498   1865.6711   1898.3837    106.6180     -8.9521   1343.7280    112.3237     38.4080
