~Version Information
 VERS.                2.00:   CWLS log ASCII Standard -VERSION 2.00
 WRAP.                  NO:   One line per frame      
~Well Information Block
#MNEM.UNIT                  Well Data                   Data Description
#----.----   ----------------------------------------   -------------------------------
 STRT.M                                      489.9660 : Starting Depth
 STOP.M                                      861.9744 : Ending Depth
 STEP.M                                        0.1524 : Level Spacing
 NULL.                                      -999.2500 : Absent Value
 COMP.       WINTERSHALL                              : Company
 WELL.       WIN.Nq.AF.WW-1                           : Well
 FLD .       AGUADA FEDERAL                           : Field
 LOC .                                                : Location
 CNTY.                                                : County
 STAT.                                                : State
 CTRY.       USA                                      : Country
 SRVC.       Baker Hughes                             : Service Company
 DATE.       24-Oct-2018                              : Log Date
 API .                                                : API Number
 UWI .                                                : Unique Well ID
~Curve Information Block
#MNEM    .UNIT        API Codes     Curve Description
#--------.--------   ------------   ---------------------------------------------------
 DEPT    .M          99 995 99  1 : Depth
 BIT     .IN         70 282  1  1 : Bit size
 BVOL    .M3         70 995 99  1 : Borehole volume
 CAL     .IN         70 280 99  1 : Caliper
 CVOL    .M3         70 995 99  1 : Cement volume
 DT24QI  .US/F       60 520 99  1 : Slowness over 24-inch interval
 M2R1    .OHMM        8 120 10  1 : Vertical 2-foot resolution matched resistivity, 10-inch DOI
 M2R2    .OHMM        8 120 20  1 : Vertical 2-foot resolution matched resistivity, 20-inch DOI
 M2R3    .OHMM        8 120 30  1 : Vertical 2-foot resolution matched resistivity, 30-inch DOI
 M2R6    .OHMM        8 120 60  1 : Vertical 2-foot resolution matched resistivity, 60-inch DOI
 M2R9    .OHMM        8 120 90  1 : Vertical 2-foot resolution matched resistivity, 90-inch DOI
 SP      .MV          1  10  1  1 : Spontaneous Potential
 TEN     .LBF        99 635 99  1 : Differential tension
 TTEN    .LBF        99 635 99  1 : Total tension
 TTQI    .MS         60 529 99  1 : Integrated traveltime from acoustic slowness
 GR      .GAPI       30 310  1  1 : Gamma ray
~Parameter Information Block
#MNEM.UNIT               Parameter Value                Parameter Description
#----.----   ----------------------------------------   -------------------------------
 LATI.DEG    0.0000                                   : Latitude
 LONG.DEG    0.0000                                   : Longitude
#  Curve Data
~A  DEPT        BIT         BVOL        CAL         CVOL        DT24QI      M2R1        M2R2        M2R3        M2R6        M2R9        SP          TEN         TTEN        TTQI        GR        
# ...
    733.1964      8.7500      4.6610      8.8089      1.6395     88.4881      8.9729      9.0517      9.0467      8.9267      8.8669     86.4702     -2.6171   1609.9690     38.9943    105.5160
    733.3488      8.7500      4.6548      8.8956      1.6372     87.0876      8.6141      8.6908      8.6828      8.5806      8.5136     86.5036     -1.0674   1611.5630     38.9501    107.4536
    733.5012      8.7500      4.6487      8.9624      1.6348     86.5022      8.3879      8.4822      8.4722      8.3759      8.3057     86.5762     -4.5543   1608.1100     38.9065    109.0993
    733.6536      8.7500      4.6427      8.9345      1.6326     86.8319      8.7667      8.8827      8.8648      8.7616      8.6800     86.7204    -13.3092   1599.4165     38.8633    110.1974
    733.8060      8.7500      4.6368      8.8394      1.6305     88.4409      9.6969      9.8429      9.8120      9.6936      9.5892     86.9757    -20.5809   1592.2535     38.8199    108.6592
    733.9584      8.7500      4.6309      8.7359      1.6283     91.1969     10.4112     10.5803     10.5423     10.4142     10.2887     87.3590    -24.1206   1588.8787     38.7756    101.5659
    734.1108      8.7500      4.6249      8.6215      1.6262     94.0870     10.6607     10.8302     10.8082     10.6773     10.5453     87.8503    -24.0115   1589.2217     38.7300     89.5855
    734.2632      8.7500      4.6188      8.5090      1.6239     95.7319     10.8368     11.0750     11.0970     10.9640     10.8289     88.3158    -22.9069   1590.5957     38.6830     78.8516
    734.4156      8.7500      4.6126      8.4651      1.6214     95.8299     11.0278     11.3980     11.4809     11.3439     11.2050     88.5463    -25.0782   1588.6808     38.6351     73.0527
    734.5680      8.7500      4.6064      8.5183      1.6190     94.9751     10.7157     11.2399     11.3751     11.2336     11.0975     88.4169    -28.9202   1585.0874     38.5872     74.0558
    734.7204      8.7500      4.6003      8.6273      1.6167     93.7194      9.5123     10.0871     10.2299     10.0908      9.9684     87.9463    -31.3958   1582.8789     38.5397     83.8242
    734.8728      8.7500      4.5944      8.7418      1.6145     92.2324      8.1336      8.6258      8.7351      8.6049      8.4972     87.2795    -33.4415   1581.1348     38.4929     98.4887
    735.0252      8.7500      4.5884      8.8188      1.6124     90.5042      7.7734      8.1586      8.2235      8.0930      7.9850     86.6938    -38.1638   1576.7546     38.4468    106.1483
    735.1776      8.7500      4.5824      8.8246      1.6102     88.9461      9.0287      9.2998      9.3068      9.1489      9.0159     86.3970    -45.2399   1570.0671     38.4015    100.2233
    735.3300      8.7500      4.5764      8.7941      1.6079     88.1579     12.1358     12.3207     12.2392     11.9930     11.7742     86.3252    -46.8102   1568.9165     38.3570     87.0916
    735.4824      8.7500      4.5702      8.7737      1.6055     88.5299     15.1388     15.1532     14.9081     14.5223     14.1814     86.3280    -40.3774   1575.7510     38.3129     76.6849
    735.6348      8.7500      4.5640      8.7498      1.6031     89.8692     15.1232     15.1455     14.8823     14.4742     14.1213     86.3913    -30.6047   1585.8677     38.2687     73.2102
    735.7872      8.7500      4.5579      8.7242      1.6008     91.5629     12.8520     13.0466     12.9076     12.5696     12.2921     86.5127    -21.4999   1595.2488     38.2237     76.3204
    735.9396      8.7500      4.5520      8.7378      1.5987     92.9751     10.1800     10.4885     10.4298     10.1689      9.9796     86.5981    -16.0559   1600.9022     38.1780     85.3063
    736.0920      8.7500      4.5462      8.7819      1.5967     93.9183      8.3559      8.6500      8.6281      8.3964      8.2597     86.6368    -17.3370   1599.7981     38.1315     94.2819
    736.2444      8.7500      4.5406      8.8150      1.5948     94.3773      7.8498      8.1235      8.1071      7.8774      7.7558     86.7237    -25.9072   1591.4382     38.0845     97.3003
    736.3968      8.7500      4.5351      8.8207      1.5931     94.3565      8.4299      8.6985      8.6641      8.4102      8.2747     86.8864    -35.9843   1581.6389     38.0373     97.0996
    736.5492      8.7500      4.5295      8.7892      1.5913     93.9517      9.1746      9.4220      9.3625      9.0810      8.9252     87.1034    -39.5572   1578.3870     37.9902     97.5468
    736.7016      8.7500      4.5238      8.7297      1.5893     93.1888      9.1603      9.3755      9.3006      9.0307      8.8807     87.4077    -33.3146   1584.9485     37.9432     97.1285
    736.8540      8.7500      4.5179      8.6822      1.5873     92.2987      8.8235      9.0241      8.9544      8.7188      8.5846     87.7473    -23.2968   1595.2488     37.8966     94.6158
    737.0064      8.7500      4.5119      8.6664      1.5851     91.6146      8.7162      8.9299      8.8778      8.6669      8.5403     87.9566    -18.1007   1600.6772     37.8504     94.3640
    737.1588      8.7500      4.5059      8.6690      1.5828     91.6122      8.8159      9.0348      9.0032      8.8079      8.6826     87.9663    -21.7139   1597.2800     37.8046     96.9706
    737.3112      8.7500      4.4999      8.6722      1.5806     92.1544      8.8726      9.0905      9.0731      8.8893      8.7655     87.9295    -27.9221   1591.3232     37.7588     99.3233
    737.4636      8.7500      4.4940      8.6653      1.5785     93.2288      8.8190      9.0168      9.0017      8.8241      8.7037     88.0303    -32.4649   1587.0740     37.7127     98.0814
    737.6160      8.7500      4.4880      8.6456      1.5763     94.5305      8.7419      8.9252      8.9021      8.7247      8.6068     88.3002    -37.6271   1582.2246     37.6661     94.6702
    737.7684      8.7500      4.4822      8.6200      1.5742     95.8787      8.7702      8.9107      8.8744      8.6912      8.5729     88.5942    -40.9874   1579.1929     37.6189     91.9344
    737.9208      8.7500      4.4763      8.5640      1.5721     97.1478      8.8227      8.9314      8.8820      8.6900      8.5702     88.7167    -35.7649   1584.7332     37.5709     91.7664
    738.0732      8.7500      4.4703      8.4833      1.5700     98.1502      8.7942      8.9001      8.8422      8.6446      8.5250     88.6250    -29.5682   1591.1908     37.5224     93.9028
    738.2256      8.7500      4.4643      8.4766      1.5678     98.5369      8.6205      8.7578      8.6980      8.5035      8.3880     88.4440    -31.7451   1589.2568     37.4733     99.7636
    738.3780      8.7500      4.4583      8.5838      1.5655     98.1339      8.2993      8.4824      8.4267      8.2432      8.1367     88.2686    -37.4453   1583.8666     37.4240    110.9550
    738.5304      8.7500      4.4524      8.6947      1.5633     97.1715      8.0560      8.2653      8.2163      8.0430      7.9455     88.0966    -38.3188   1583.3831     37.3749    121.1616
    738.6828      8.7500      4.4464      8.6995      1.5612     96.2538      8.1834      8.4081      8.3652      8.1964      8.1006     87.9612    -37.4627   1584.6470     37.3264    123.2157
    738.8352      8.7500      4.4406      8.6316      1.5592     96.0395      8.6651      8.9007      8.8653      8.6967      8.5985     87.9033    -39.9156   1582.5916     37.2782    116.8862
    738.9876      8.7500      4.4348      8.5738      1.5572     96.8189      9.0260      9.2582      9.2363      9.0715      8.9770     87.9379    -42.3236   1580.5684     37.2302    106.5455
    739.1400      8.7500      4.4290      8.5521      1.5551     98.2460      8.8310      9.0578      9.0576      8.9054      8.8254     88.1126    -42.8081   1580.4630     37.1818     98.1405
    739.2924      8.7500      4.4232      8.5328      1.5531     99.7425      8.2076      8.4369      8.4597      8.3243      8.2594     88.4702    -41.9534   1581.7141     37.1327     95.9122
    739.4448      8.7500      4.4174      8.5010      1.5511    100.9478      7.5896      7.8285      7.8690      7.7463      7.6938     88.9217    -38.9190   1585.1638     37.0828     93.8660
