~Version Information
 VERS.                2.00:   CWLS log ASCII Standard -VERSION 2.00
 WRAP.                  NO:   One line per frame      
~Well Information Block
#MNEM.UNIT                  Well Data                   Data Description
#----.----   ----------------------------------------   -------------------------------
 STRT.M                                      489.9660 : Starting Depth
 STOP.M                                      861.9744 : Ending Depth
 STEP.M                                        0.1524 : Level Spacing
 NULL.                                      -999.2500 : Absent Value
 COMP.       WINTERSHALL                              : Company
 WELL.       WIN.Nq.AF.WW-1                           : Well
 FLD .       AGUADA FEDERAL                           : Field
 LOC .                                                : Location
 CNTY.                                                : County
 STAT.                                                : State
 CTRY.       USA                                      : Country
 SRVC.       Baker Hughes                             : Service Company
 DATE.       24-Oct-2018                              : Log Date
 API .                                                : API Number
 UWI .                                                : Unique Well ID
~Curve Information Block
#MNEM    .UNIT        API Codes     Curve Description
#--------.--------   ------------   ---------------------------------------------------
 DEPT    .M          99 995 99  1 : Depth
 BIT     .IN         70 282  1  1 : Bit size
 BVOL    .M3         70 995 99  1 : Borehole volume
 CAL     .IN         70 280 99  1 : Caliper
 CVOL    .M3         70 995 99  1 : Cement volume
 DT24QI  .US/F       60 520 99  1 : Slowness over 24-inch interval
 M2R1    .OHMM        8 120 10  1 : Vertical 2-foot resolution matched resistivity, 10-inch DOI
 M2R2    .OHMM        8 120 20  1 : Vertical 2-foot resolution matched resistivity, 20-inch DOI
 M2R3    .OHMM        8 120 30  1 : Vertical 2-foot resolution matched resistivity, 30-inch DOI
 M2R6    .OHMM        8 120 60  1 : Vertical 2-foot resolution matched resistivity, 60-inch DOI
 M2R9    .OHMM        8 120 90  1 : Vertical 2-foot resolution matched resistivity, 90-inch DOI
 SP      .MV          1  10  1  1 : Spontaneous Potential
 TEN     .LBF        99 635 99  1 : Differential tension
 TTEN    .LBF        99 635 99  1 : Total tension
 TTQI    .MS         60 529 99  1 : Integrated traveltime from acoustic slowness
 GR      .GAPI       30 310  1  1 : Gamma ray
~Parameter Information Block
#MNEM.UNIT               Parameter Value                Parameter Description
#----.----   ----------------------------------------   -------------------------------
 LATI.DEG    0.0000                                   : Latitude
 LONG.DEG    0.0000                                   : Longitude
#  Curve Data
~A  DEPT        BIT         BVOL        CAL         CVOL        DT24QI      M2R1        M2R2        M2R3        M2R6        M2R9        SP          TEN         TTEN        TTQI        GR        
# ...
    758.7996      8.7500      3.6770      8.7977      1.2913    101.7202      5.7708      5.8778      5.8815      5.8606      5.8683     87.3753     -6.4627   1644.2235     30.7485    135.1805
    758.9520      8.7500      3.6710      8.7867      1.2890    102.7641      5.5573      5.6925      5.7041      5.6749      5.6866     87.4129     -4.9451   1645.8176     30.6976    138.6810
    759.1044      8.7500      3.6649      8.7836      1.2867    102.6985      5.5096      5.6723      5.6928      5.6508      5.6666     87.4717     -8.5125   1642.3439     30.6462    135.7928
    759.2568      8.7500      3.6589      8.7946      1.2845    102.8937      5.2488      5.4204      5.4469      5.3923      5.4118     87.4787    -17.8396   1633.1654     30.5949    136.1014
    759.4092      8.7500      3.6529      8.8047      1.2823    104.1119      4.8765      5.0447      5.0742      5.0101      5.0324     87.4213    -22.0975   1629.1267     30.5435    146.8831
    759.5616      8.7500      3.6469      8.8034      1.2801    106.0266      4.5964      4.7654      4.7973      4.7260      4.7508     87.3255    -21.4772   1629.9900     30.4914    160.0118
    759.7140      8.7500      3.6409      8.8000      1.2779    107.8894      4.3574      4.5321      4.5661      4.4908      4.5170     87.2301    -22.3394   1629.3853     30.4384    165.9151
    759.8664      8.7500      3.6349      8.7928      1.2757    109.1817      4.0953      4.2714      4.3061      4.2309      4.2567     87.1866    -19.0600   1632.9309     30.3844    165.8414
    760.0188      8.7500      3.6289      8.7863      1.2735    109.5262      3.8694      4.0397      4.0732      4.0009      4.0249     87.1969    -10.4472   1641.7374     30.3298    164.4680
    760.1712      8.7500      3.6229      8.8053      1.2712    108.5808      3.7324      3.8889      3.9190      3.8508      3.8719     87.1928     -2.4617   1649.7957     30.2751    162.0181
    760.3236      8.7500      3.6169      8.8424      1.2690    105.9576      3.6595      3.7909      3.8147      3.7520      3.7698     87.1167      4.1957   1656.4514     30.2208    154.7901
    760.4760      8.7500      3.6110      8.8560      1.2668    101.9623      3.6531      3.7481      3.7629      3.7069      3.7212     86.9584      4.7936   1657.0337     30.1678    137.7982
    760.6284      8.7500      3.6050      8.8410      1.2646     97.5753      3.7759      3.8294      3.8326      3.7835      3.7949     86.7834     -2.2628   1649.9935     30.1168    113.3666
    760.7808      8.7500      3.5990      8.8227      1.2624     94.3352      4.0212      4.0377      4.0276      3.9856      3.9951     86.6711     -5.9272   1646.3778     30.0680     92.4534
    760.9332      8.7500      3.5930      8.8108      1.2603     92.7303      4.2703      4.2549      4.2309      4.1974      4.2063     86.6286     -4.1202   1648.2319     30.0209     81.8617
    761.0856      8.7500      3.5871      8.8072      1.2581     92.1307      4.4532      4.4148      4.3800      4.3571      4.3666     86.5926     -2.5055   1649.8915     29.9745     79.1482
    761.2380      8.7500      3.5811      8.8076      1.2559     91.9521      4.6973      4.6455      4.6054      4.5911      4.6033     86.5093      0.0197   1652.4702     29.9284     81.2539
    761.3904      8.7500      3.5751      8.8011      1.2537     92.5742      5.0611      5.0117      4.9765      4.9634      4.9788     86.3903      4.0637   1656.5439     29.8825     84.1034
    761.5428      8.7500      3.5691      8.7935      1.2515     94.4350      5.2485      5.2367      5.2164      5.2017      5.2220     86.3309      5.7200   1658.1794     29.8362     83.5890
    761.6952      8.7500      3.5632      8.7991      1.2493     97.1560      4.9754      5.0239      5.0277      5.0083      5.0281     86.4479      5.9754   1658.3806     29.7890     83.6362
    761.8476      8.7500      3.5572      8.8250      1.2471    100.1696      4.3656      4.4692      4.4871      4.4594      4.4772     86.7505      6.6352   1658.9851     29.7404     93.0079
    762.0000      8.7500      3.5512      8.8576      1.2449    102.9438      3.7604      3.8808      3.9040      3.8701      3.8848     87.0934      6.1967   1658.5112     29.6903    110.1877
    762.1524      8.7500      3.5452      8.8676      1.2427    104.8076      3.4161      3.5290      3.5509      3.5135      3.5264     87.3109      2.5481   1654.8540     29.6388    126.4763
    762.3048      8.7500      3.5392      8.8535      1.2405    105.3374      3.3948      3.4887      3.5021      3.4623      3.4742     87.3717     -5.5179   1646.8149     29.5864    136.4377
    762.4572      8.7500      3.5332      8.8420      1.2382    104.7647      3.6860      3.7543      3.7553      3.7127      3.7255     87.3462    -16.1771   1636.2402     29.5338    138.6636
    762.6096      8.7500      3.5271      8.8441      1.2360    104.1213      4.2631      4.3114      4.2988      4.2524      4.2685     87.3027    -23.0323   1629.5400     29.4814    135.5919
    762.7620      8.7500      3.5211      8.8620      1.2337    104.3114      4.8252      4.8722      4.8486      4.8003      4.8224     87.2907    -18.1684   1634.5952     29.4293    134.8302
    762.9144      8.7500      3.5151      8.8878      1.2315    105.2884      4.8253      4.8998      4.8788      4.8389      4.8610     87.3227     -5.4643   1647.4436     29.3772    140.5247
    763.0668      8.7500      3.5091      8.8937      1.2293    106.5056      4.3851      4.4917      4.4860      4.4524      4.4721     87.3652      3.1004   1656.0620     29.3245    149.1473
    763.2192      8.7500      3.5031      8.8828      1.2271    107.6799      4.0303      4.1555      4.1640      4.1307      4.1478     87.3985      2.3128   1655.2753     29.2713    155.7016
    763.3716      8.7500      3.4971      8.8884      1.2249    108.6803      3.8631      3.9963      4.0145      3.9758      3.9905     87.4317     -3.4312   1649.5483     29.2174    157.0520
    763.5240      8.7500      3.4912      8.9000      1.2227    109.5501      3.7578      3.8828      3.9028      3.8561      3.8662     87.4780     -7.7379   1645.3022     29.1631    154.7038
    763.6764      8.7500      3.4852      8.8866      1.2205    110.2628      3.6263      3.7258      3.7404      3.6870      3.6920     87.5469     -7.8543   1645.2704     29.1083    155.2921
    763.8288      8.7500      3.4792      8.8652      1.2183    110.2717      3.4913      3.5569      3.5626      3.5057      3.5059     87.6426     -2.6573   1650.5360     29.0532    157.5071
    763.9812      8.7500      3.4731      8.8539      1.2160    108.9808      3.4218      3.4566      3.4538      3.3967      3.3929     87.7352      2.1359   1655.3535     28.9980    155.9954
    764.1336      8.7500      3.4671      8.8450      1.2138    105.8933      3.4834      3.4915      3.4815      3.4242      3.4167     87.7823      5.4650   1658.6709     28.9435    152.9122
    764.2860      8.7500      3.4610      8.8609      1.2115    101.3675      3.6809      3.6682      3.6517      3.5917      3.5800     87.8136      6.4658   1659.6428     28.8906    145.5644
    764.4384      8.7500      3.4550      8.9181      1.2092     96.3464      3.9132      3.8854      3.8634      3.8027      3.7866     87.9283      5.7121   1658.8608     28.8399    123.9851
    764.5908      8.7500      3.4489      8.9548      1.2070     91.9983      4.0954      4.0606      4.0362      3.9782      3.9577     88.1136      5.1651   1658.2816     28.7917     95.6590
    764.7432      8.7500      3.4429      8.9300      1.2047     89.3130      4.2357      4.2034      4.1808      4.1269      4.1016     88.2140      6.1713   1659.2485     28.7457     78.7676
    764.8956      8.7500      3.4368      8.8895      1.2024     88.6921      4.2983      4.2766      4.2601      4.2110      4.1806     88.1663      4.4501   1657.4963     28.7011     76.9134
    765.0480      8.7500      3.4307      8.8866      1.2001     90.0248      4.3055      4.2960      4.2870      4.2416      4.2060     88.0727      0.8973   1653.9333     28.6567     83.3146
