~Version Information
 VERS.                2.00:   CWLS log ASCII Standard -VERSION 2.00
 WRAP.                  NO:   One line per frame      
~Well Information Block
#MNEM.UNIT                  Well Data                   Data Description
#----.----   ----------------------------------------   -------------------------------
 STRT.M                                      489.9660 : Starting Depth
 STOP.M                                      861.9744 : Ending Depth
 STEP.M                                        0.1524 : Level Spacing
 NULL.                                      -999.2500 : Absent Value
 COMP.       WINTERSHALL                              : Company
 WELL.       WIN.Nq.AF.WW-1                           : Well
 FLD .       AGUADA FEDERAL                           : Field
 LOC .                                                : Location
 CNTY.                                                : County
 STAT.                                                : State
 CTRY.       USA                                      : Country
 SRVC.       Baker Hughes                             : Service Company
 DATE.       24-Oct-2018                              : Log Date
 API .                                                : API Number
 UWI .                                                : Unique Well ID
~Curve Information Block
#MNEM    .UNIT        API Codes     Curve Description
#--------.--------   ------------   ---------------------------------------------------
 DEPT    .M          99 995 99  1 : Depth
 BIT     .IN         70 282  1  1 : Bit size
 BVOL    .M3         70 995 99  1 : Borehole volume
 CAL     .IN         70 280 99  1 : Caliper
 CVOL    .M3         70 995 99  1 : Cement volume
 DT24QI  .US/F       60 520 99  1 : Slowness over 24-inch interval
 M2R1    .OHMM        8 120 10  1 : Vertical 2-foot resolution matched resistivity, 10-inch DOI
 M2R2    .OHMM        8 120 20  1 : Vertical 2-foot resolution matched resistivity, 20-inch DOI
 M2R3    .OHMM        8 120 30  1 : Vertical 2-foot resolution matched resistivity, 30-inch DOI
 M2R6    .OHMM        8 120 60  1 : Vertical 2-foot resolution matched resistivity, 60-inch DOI
 M2R9    .OHMM        8 120 90  1 : Vertical 2-foot resolution matched resistivity, 90-inch DOI
 SP      .MV          1  10  1  1 : Spontaneous Potential
 TEN     .LBF        99 635 99  1 : Differential tension
 TTEN    .LBF        99 635 99  1 : Total tension
 TTQI    .MS         60 529 99  1 : Integrated traveltime from acoustic slowness
 GR      .GAPI       30 310  1  1 : Gamma ray
~Parameter Information Block
#MNEM.UNIT               Parameter Value                Parameter Description
#----.----   ----------------------------------------   -------------------------------
 LATI.DEG    0.0000                                   : Latitude
 LONG.DEG    0.0000                                   : Longitude
#  Curve Data
~A  DEPT        BIT         BVOL        CAL         CVOL        DT24QI      M2R1        M2R2        M2R3        M2R6        M2R9        SP          TEN         TTEN        TTQI        GR        
# ...
    637.1844      8.7500      8.2668      8.7712      2.8615     98.6294     15.6928     16.1129     16.1171     16.2634     16.0133     97.9372     19.4363   1546.2244     70.3914     61.3338
    637.3368      8.7500      8.2609      8.7608      2.8594     98.3070     16.6097     17.3143     17.3865     17.5370     17.3125     97.6210     21.1338   1547.7881     70.3421     55.9340
    637.4892      8.7500      8.2550      8.7519      2.8573     97.5393     15.7483     16.5984     16.7582     16.8305     16.6455     97.5908     15.3592   1541.8506     70.2929     54.2705
    637.6416      8.7500      8.2491      8.7557      2.8551     96.6805     13.0597     13.8500     14.0537     14.0262     13.8995     97.8538      8.5425   1534.9155     70.2442     58.5714
    637.7940      8.7500      8.2432      8.7702      2.8530     96.3936     10.3032     10.9113     11.0898     10.9944     10.9185     98.3544      3.4745   1529.8030     70.1958     67.1189
    637.9464      8.7500      8.2372      8.7749      2.8508     96.9813      8.6701      9.1158      9.2437      9.1227      9.0702     98.9156     -2.3609   1523.9788     70.1476     75.5045
    638.0988      8.7500      8.2312      8.7634      2.8487     97.7098      8.1271      8.4195      8.5126      8.3826      8.3417     99.3491     -4.8384   1521.5374     70.0991     79.1029
    638.2512      8.7500      8.2253      8.7498      2.8465     98.0303      8.3611      8.5215      8.5524      8.4090      8.3790     99.6142     -6.1514   1520.2625     70.0503     78.6227
    638.4036      8.7500      8.2193      8.7415      2.8443     97.7978      9.1016      9.1435      9.1143      8.9543      8.9310     99.7394    -10.2384   1516.2301     70.0013     77.7466
    638.5560      8.7500      8.2133      8.7347      2.8420     96.9404     10.1857     10.0982     10.0135      9.8161      9.7957     99.7688    -12.7296   1513.8206     69.9524     76.2535
    638.7084      8.7500      8.2073      8.7326      2.8398     95.3474     10.8631     10.7248     10.6097     10.3821     10.3631     99.8232    -10.2967   1516.3306     69.9039     73.5032
    638.8608      8.7500      8.2013      8.7418      2.8376     93.0790     10.2276     10.1923     10.1006      9.8804      9.8611    100.0004     -8.3018   1518.3794     69.8562     72.3652
    639.0132      8.7500      8.1954      8.7543      2.8355     90.9653      8.7717      8.8594      8.8090      8.6236      8.6028    100.2780     -7.5462   1519.2092     69.8097     75.0428
    639.1656      8.7500      8.1894      8.7614      2.8333     89.6136      7.4069      7.5483      7.5145      7.3563      7.3342    100.5750     -1.9078   1524.9536     69.7642     80.6553
    639.3180      8.7500      8.1835      8.7626      2.8312     89.7930      6.5399      6.6773      6.6442      6.5006      6.4771    100.8063      3.5391   1530.4796     69.7194     86.1264
    639.4704      8.7500      8.1776      8.7626      2.8290     91.1372      6.4288      6.5290      6.4833      6.3421      6.3138    100.8803      1.9471   1528.9158     69.6745     87.5502
    639.6228      8.7500      8.1716      8.7626      2.8269     92.5991      7.1488      7.1964      7.1261      6.9585      6.9179    100.8057     -2.8444   1524.1462     69.6289     84.3143
    639.7752      8.7500      8.1657      8.7637      2.8247     92.6585      8.3044      8.3098      8.2059      7.9910      7.9323    100.6932     -6.6127   1520.4141     69.5826     80.9338
    639.9276      8.7500      8.1598      8.7672      2.8226     91.5012      8.8484      8.8507      8.7371      8.5084      8.4381    100.6173    -12.0082   1515.0732     69.5363     81.1334
    640.0800      8.7500      8.1538      8.7732      2.8204     89.9518      8.3825      8.4375      8.3590      8.1648      8.0973    100.5895    -17.9300   1509.2505     69.4905     83.4587
    640.2324      8.7500      8.1479      8.7823      2.8183     88.8797      7.6075      7.7213      7.6780      7.5239      7.4648    100.6243    -19.2950   1508.0298     69.4455     85.5680
    640.3848      8.7500      8.1420      8.7844      2.8162     88.3984      7.2007      7.3426      7.3226      7.1835      7.1278    100.6874    -14.0021   1513.4711     69.4011     86.9269
    640.5372      8.7500      8.1361      8.7721      2.8141     88.6899      7.2910      7.4434      7.4301      7.2919      7.2317    100.6920     -8.7826   1518.8071     69.3569     86.7156
    640.6896      8.7500      8.1302      8.7621      2.8120     89.5649      7.6804      7.8260      7.8024      7.6578      7.5884    100.6161    -10.0911   1517.5879     69.3126     84.4566
    640.8420      8.7500      8.1243      8.7683      2.8098     90.3489      8.1213      8.2095      8.1633      8.0093      7.9301    100.5314    -14.4172   1513.3451     69.2678     80.6449
    640.9944      8.7500      8.1184      8.7700      2.8077     90.2496      8.5951      8.6107      8.5385      8.3742      8.2848    100.5012    -15.0828   1512.7642     69.2226     75.6747
    641.1468      8.7500      8.1125      8.7532      2.8056     89.9379      9.0488      9.0032      8.9127      8.7412      8.6403    100.5433    -14.0995   1513.8333     69.1775     72.0420
    641.2992      8.7500      8.1066      8.7349      2.8034     90.2669      9.0917      9.0137      8.9273      8.7654      8.6591    100.6437    -13.2438   1514.7924     69.1325     73.0674
    641.4516      8.7500      8.1006      8.7292      2.8013     91.1092      8.7765      8.6823      8.6178      8.4789      8.3731    100.7452     -9.1363   1519.0129     69.0874     77.2164
    641.6040      8.7500      8.0947      8.7358      2.7991     91.3936      8.6999      8.5822      8.5397      8.4109      8.3050    100.7629     -3.1923   1525.0398     69.0418     78.1335
    641.7564      8.7500      8.0888      8.7496      2.7970     91.3818      9.1639      9.0027      8.9768      8.8448      8.7235    100.6722     -0.6183   1527.6345     68.9961     73.3851
    641.9088      8.7500      8.0828      8.7658      2.7948     92.3060      9.9592      9.7436      9.7310      9.5978      9.4409    100.5185     -2.6414   1525.5808     68.9504     67.2027
    642.0612      8.7500      8.0769      8.7760      2.7927     94.3102     10.5396     10.2947     10.2921     10.1688      9.9765    100.3330     -5.0957   1523.0916     68.9043     62.8878
    642.2136      8.7500      8.0709      8.7787      2.7905     95.7936     10.6553     10.4393     10.4436     10.3425     10.1279    100.1516     -5.1049   1523.0835     68.8571     60.3683
    642.3660      8.7500      8.0650      8.7820      2.7883     95.5553     10.5412     10.4004     10.4126     10.3350     10.1072    100.0313     -5.3426   1522.8970     68.8092     61.1171
    642.5184      8.7500      8.0590      8.7922      2.7862     93.6588     10.8364     10.7789     10.8037     10.7376     10.4808     99.9632     -8.7219   1519.6162     68.7615     63.7321
    642.6708      8.7500      8.0531      8.7964      2.7840     91.1897     12.2280     12.2606     12.3130     12.2366     11.8955     99.8729    -11.0524   1517.4126     68.7146     62.0417
    642.8232      8.7500      8.0472      8.7822      2.7819     89.2095     14.5976     14.7448     14.8330     14.7195     14.2331     99.7868     -9.2778   1519.3049     68.6690     56.1160
    642.9756      8.7500      8.0412      8.7636      2.7797     88.3106     15.6326     15.8258     15.9474     15.7751     15.2333     99.7919     -9.6672   1519.0256     68.6244     53.0575
    643.1280      8.7500      8.0353      8.7636      2.7776     88.1348     13.8258     14.0698     14.2078     13.9965     13.5636     99.8882    -14.8497   1513.9850     68.5803     56.5656
    643.2804      8.7500      8.0294      8.7814      2.7755     87.9698     11.5460     11.8019     11.9338     11.7045     11.3821     99.9850    -15.3559   1513.6483     68.5362     63.7636
    643.4328      8.7500      8.0235      8.7937      2.7734     87.3274     10.5453     10.8124     10.9423     10.6919     10.4168    100.0155     -7.9547   1521.1831     68.4922     70.5867
