~Version Information
 VERS.                2.00:   CWLS log ASCII Standard -VERSION 2.00
 WRAP.                  NO:   One line per frame      
~Well Information Block
#MNEM.UNIT                  Well Data                   Data Description
#----.----   ----------------------------------------   -------------------------------
 STRT.M                                      489.9660 : Starting Depth
 STOP.M                                      861.9744 : Ending Depth
 STEP.M                                        0.1524 : Level Spacing
 NULL.                                      -999.2500 : Absent Value
 COMP.       WINTERSHALL                              : Company
 WELL.       WIN.Nq.AF.WW-1                           : Well
 FLD .       AGUADA FEDERAL                           : Field
 LOC .                                                : Location
 CNTY.                                                : County
 STAT.                                                : State
 CTRY.       USA                                      : Country
 SRVC.       Baker Hughes                             : Service Company
 DATE.       24-Oct-2018                              : Log Date
 API .                                                : API Number
 UWI .                                                : Unique Well ID
~Curve Information Block
#MNEM    .UNIT        API Codes     Curve Description
#--------.--------   ------------   ---------------------------------------------------
 DEPT    .M          99 995 99  1 : Depth
 BIT     .IN         70 282  1  1 : Bit size
 BVOL    .M3         70 995 99  1 : Borehole volume
 CAL     .IN         70 280 99  1 : Caliper
 CVOL    .M3         70 995 99  1 : Cement volume
 DT24QI  .US/F       60 520 99  1 : Slowness over 24-inch interval
 M2R1    .OHMM        8 120 10  1 : Vertical 2-foot resolution matched resistivity, 10-inch DOI
 M2R2    .OHMM        8 120 20  1 : Vertical 2-foot resolution matched resistivity, 20-inch DOI
 M2R3    .OHMM        8 120 30  1 : Vertical 2-foot resolution matched resistivity, 30-inch DOI
 M2R6    .OHMM        8 120 60  1 : Vertical 2-foot resolution matched resistivity, 60-inch DOI
 M2R9    .OHMM        8 120 90  1 : Vertical 2-foot resolution matched resistivity, 90-inch DOI
 SP      .MV          1  10  1  1 : Spontaneous Potential
 TEN     .LBF        99 635 99  1 : Differential tension
 TTEN    .LBF        99 635 99  1 : Total tension
 TTQI    .MS         60 529 99  1 : Integrated traveltime from acoustic slowness
 GR      .GAPI       30 310  1  1 : Gamma ray
~Parameter Information Block
#MNEM.UNIT               Parameter Value                Parameter Description
#----.----   ----------------------------------------   -------------------------------
 LATI.DEG    0.0000                                   : Latitude
 LONG.DEG    0.0000                                   : Longitude
#  Curve Data
~A  DEPT        BIT         BVOL        CAL         CVOL        DT24QI      M2R1        M2R2        M2R3        M2R6        M2R9        SP          TEN         TTEN        TTQI        GR        
# ...
    560.3748      8.7500     11.2542      8.7746      3.9418     86.0503      7.3246      7.0733      6.9957      6.9223      6.8689     87.3117    -47.7870   1384.1102     93.3321     56.7094
    560.5272      8.7500     11.2484      8.7752      3.9398     86.2477      7.3787      7.1967      7.1373      7.0609      7.0026     88.2204    -51.4378   1380.8804     93.2891     55.2299
    560.6796      8.7500     11.2426      8.7761      3.9377     86.8072      7.3121      7.2082      7.1600      7.0809      7.0184     88.9443    -46.9752   1385.7505     93.2460     54.8400
    560.8320      8.7500     11.2367      8.7697      3.9357     87.5088      7.2397      7.1926      7.1463      7.0641      6.9973     89.5985    -35.4403   1397.6272     93.2026     54.8593
    560.9844      8.7500     11.2309      8.7516      3.9336     87.9074      7.2810      7.2522      7.1976      7.1103      7.0377     89.9145    -27.5406   1405.7924     93.1588     54.6280
    561.1368      8.7500     11.2251      8.7222      3.9316     87.5810      7.5783      7.5305      7.4554      7.3570      7.2746     89.6643    -32.3353   1401.2271     93.1149     55.5454
    561.2892      8.7500     11.2194      8.6991      3.9297     86.4495      8.1089      8.0103      7.9019      7.7850      7.6886     89.2484    -35.3679   1398.4426     93.0711     56.8922
    561.4416      8.7500     11.2138      8.7101      3.9279     85.6075      8.4937      8.3213      8.1787      8.0452      7.9393     89.1582    -21.1240   1412.9076     93.0279     55.9392
    561.5940      8.7500     11.2082      8.7359      3.9261     85.8164      8.3063      8.0706      7.9175      7.7832      7.6828     89.1190     -4.4333   1429.7021     92.9851     53.3368
    561.7464      8.7500     11.2027      8.7164      3.9244     86.8914      7.7928      7.5208      7.3761      7.2506      7.1635     88.4749     -4.9021   1429.2650     92.9422     51.0937
    561.8988      8.7500     11.1971      8.6520      3.9226     87.8787      7.5784      7.2782      7.1342      7.0083      6.9281     87.1997    -18.2201   1416.0415     92.8987     49.3380
    562.0512      8.7500     11.1914      8.5949      3.9206     88.0244      7.7600      7.4312      7.2712      7.1326      7.0515     85.8766    -26.4702   1407.9977     92.8548     48.2153
    562.2036      8.7500     11.1855      8.5802      3.9185     87.3110      7.9374      7.6022      7.4228      7.2722      7.1906     84.9544    -25.6388   1409.0731     92.8108     49.7455
    562.3560      8.7500     11.1796      8.5966      3.9164     86.4633      7.8952      7.5690      7.3792      7.2268      7.1491     84.4518    -23.8304   1411.0933     92.7671     53.0264
    562.5084      8.7500     11.1736      8.6038      3.9142     86.1428      7.9375      7.5955      7.3961      7.2425      7.1672     84.1925    -26.4332   1408.6854     92.7239     54.3344
    562.6608      8.7500     11.1677      8.5754      3.9121     86.3310      8.2340      7.8368      7.6220      7.4612      7.3839     84.0989    -25.8885   1409.4481     92.6808     53.3695
    562.8132      8.7500     11.1617      8.5304      3.9099     86.3088      8.5110      8.0533      7.8302      7.6653      7.5856     84.2724    -20.1626   1415.3761     92.6376     53.6312
    562.9656      8.7500     11.1558      8.5120      3.9078     85.5478      8.5114      8.0410      7.8294      7.6708      7.5920     84.8956    -18.0883   1417.6005     92.5945     54.7458
    563.1180      8.7500     11.1499      8.5445      3.9057     84.4463      8.3625      7.9424      7.7555      7.6067      7.5293     85.9716    -22.1955   1413.6400     92.5517     53.4277
    563.2704      8.7500     11.1441      8.6298      3.9036     83.9064      8.1703      7.8618      7.7080      7.5685      7.4913     87.2660    -30.8822   1405.1589     92.5095     51.8459
    563.4228      8.7500     11.1382      8.7323      3.9015     84.3425      7.8218      7.6706      7.5603      7.4336      7.3582     88.5222    -39.2159   1397.1182     92.4675     52.6084
    563.5752      8.7500     11.1323      8.7995      3.8994     85.5871      7.3926      7.3903      7.3241      7.2120      7.1406     89.5601    -40.5339   1396.1544     92.4254     53.4681
    563.7276      8.7500     11.1265      8.8109      3.8973     87.1213      7.1347      7.2446      7.2114      7.1069      7.0381     90.2379    -36.2045   1400.8347     92.3826     53.1661
    563.8800      8.7500     11.1206      8.7886      3.8953     88.4211      7.1071      7.2755      7.2657      7.1653      7.0965     90.5230    -33.7752   1403.5680     92.3390     51.9992
    564.0324      8.7500     11.1149      8.7587      3.8934     88.9888      7.0956      7.2875      7.2905      7.1942      7.1286     90.5209    -36.1771   1401.4490     92.2948     51.2005
    564.1848      8.7500     11.1092      8.7366      3.8915     88.7114      6.9589      7.1262      7.1325      7.0416      6.9821     90.3354    -39.1549   1398.7761     92.2503     53.1309
    564.3372      8.7500     11.1035      8.7254      3.8895     88.0550      6.8368      6.9553      6.9592      6.8728      6.8202     89.9786    -36.2750   1401.9755     92.2059     56.4463
    564.4896      8.7500     11.0978      8.7107      3.8876     87.7468      6.9517      7.0327      7.0319      6.9467      6.8985     89.4302    -31.9949   1406.5408     92.1619     57.2435
    564.6420      8.7500     11.0921      8.6997      3.8857     88.1637      7.2348      7.2917      7.2858      7.1985      7.1514     88.8803    -34.9817   1403.8345     92.1180     56.2338
    564.7944      8.7500     11.0865      8.7267      3.8839     88.9374      7.2739      7.3201      7.3115      7.2261      7.1823     88.6676    -35.0356   1404.1154     92.0740     55.4150
    564.9468      8.7500     11.0809      8.7964      3.8820     89.5623      7.0378      7.0914      7.0847      7.0066      6.9674     88.8531    -24.3347   1415.1320     92.0295     54.2779
    565.0992      8.7500     11.0753      8.8745      3.8802     89.9219      6.8978      6.9690      6.9688      6.8958      6.8583     89.2113    -18.1359   1421.5354     91.9847     54.2302
    565.2516      8.7500     11.0696      8.9278      3.8783     90.1491      6.8301      6.9499      6.9589      6.8896      6.8509     89.6691    -26.5562   1413.2810     91.9397     56.2567
    565.4040      8.7500     11.0637      8.9332      3.8762     90.2387      6.6688      6.8367      6.8542      6.7883      6.7475     90.2238    -37.3898   1402.6904     91.8947     57.8722
    565.5564      8.7500     11.0577      8.8886      3.8740     90.0724      6.5353      6.7332      6.7551      6.6895      6.6468     90.6312    -41.1037   1399.2979     91.8495     57.1279
    565.7088      8.7500     11.0517      8.8396      3.8718     89.6443      6.5396      6.7440      6.7644      6.6963      6.6501     90.7067    -41.1452   1399.6060     91.8045     55.8200
    565.8612      8.7500     11.0458      8.8181      3.8696     89.1804      6.6130      6.8014      6.8133      6.7417      6.6902     90.6196    -42.4697   1398.6357     91.7597     56.1115
    566.0136      8.7500     11.0398      8.8138      3.8675     88.9223      6.7614      6.9198      6.9168      6.8409      6.7829     90.7434    -43.1249   1398.3374     91.7151     58.9571
    566.1660      8.7500     11.0339      8.8145      3.8654     88.8829      6.9378      7.0564      7.0335      6.9540      6.8889     91.3910    -38.0181   1403.7930     91.6706     61.6298
    566.3184      8.7500     11.0281      8.8146      3.8633     88.9045      6.9576      7.0301      6.9859      6.9064      6.8378     92.4615    -31.1748   1410.9529     91.6262     61.9178
    566.4708      8.7500     11.0222      8.7870      3.8612     88.6922      6.9242      6.9162      6.8546      6.7804      6.7121     93.1927    -27.1223   1415.2723     91.5817     59.8724
    566.6232      8.7500     11.0163      8.7278      3.8591     88.1342      7.1125      7.0065      6.9285      6.8574      6.7879     92.8931    -24.4109   1418.1957     91.5374     56.8698
