~Version Information
 VERS.                2.00:   CWLS log ASCII Standard -VERSION 2.00
 WRAP.                  NO:   One line per frame      
~Well Information Block
#MNEM.UNIT                  Well Data                   Data Description
#----.----   ----------------------------------------   -------------------------------
 STRT.M                                      489.9660 : Starting Depth
 STOP.M                                      861.9744 : Ending Depth
 STEP.M                                        0.1524 : Level Spacing
 NULL.                                      -999.2500 : Absent Value
 COMP.       WINTERSHALL                              : Company
 WELL.       WIN.Nq.AF.WW-1                           : Well
 FLD .       AGUADA FEDERAL                           : Field
 LOC .                                                : Location
 CNTY.                                                : County
 STAT.                                                : State
 CTRY.       USA                                      : Country
 SRVC.       Baker Hughes                             : Service Company
 DATE.       24-Oct-2018                              : Log Date
 API .                                                : API Number
 UWI .                                                : Unique Well ID
~Curve Information Block
#MNEM    .UNIT        API Codes     Curve Description
#--------.--------   ------------   ---------------------------------------------------
 DEPT    .M          99 995 99  1 : Depth
 BIT     .IN         70 282  1  1 : Bit size
 BVOL    .M3         70 995 99  1 : Borehole volume
 CAL     .IN         70 280 99  1 : Caliper
 CVOL    .M3         70 995 99  1 : Cement volume
 DT24QI  .US/F       60 520 99  1 : Slowness over 24-inch interval
 M2R1    .OHMM        8 120 10  1 : Vertical 2-foot resolution matched resistivity, 10-inch DOI
 M2R2    .OHMM        8 120 20  1 : Vertical 2-foot resolution matched resistivity, 20-inch DOI
 M2R3    .OHMM        8 120 30  1 : Vertical 2-foot resolution matched resistivity, 30-inch DOI
 M2R6    .OHMM        8 120 60  1 : Vertical 2-foot resolution matched resistivity, 60-inch DOI
 M2R9    .OHMM        8 120 90  1 : Vertical 2-foot resolution matched resistivity, 90-inch DOI
 SP      .MV          1  10  1  1 : Spontaneous Potential
 TEN     .LBF        99 635 99  1 : Differential tension
 TTEN    .LBF        99 635 99  1 : Total tension
 TTQI    .MS         60 529 99  1 : Integrated traveltime from acoustic slowness
 GR      .GAPI       30 310  1  1 : Gamma ray
~Parameter Information Block
#MNEM.UNIT               Parameter Value                Parameter Description
#----.----   ----------------------------------------   -------------------------------
 LATI.DEG    0.0000                                   : Latitude
 LONG.DEG    0.0000                                   : Longitude
#  Curve Data
~A  DEPT        BIT         BVOL        CAL         CVOL        DT24QI      M2R1        M2R2        M2R3        M2R6        M2R9        SP          TEN         TTEN        TTQI        GR        
# ...
    541.1724      8.7500     11.9803      8.9642      4.1911     83.7995      6.9024      6.6026      6.4291      6.3230      6.3092     77.9026     -2.9783   1400.9894     99.1417     49.9269
    541.3248      8.7500     11.9748      9.1237      4.1894     84.1774      6.6562      6.4801      6.3178      6.2097      6.1935     77.6698      3.2055   1407.1472     99.0998     48.9895
    541.4772      8.7500     11.9693      9.1496      4.1877     85.6968      6.6578      6.5262      6.3590      6.2408      6.2201     77.4024      3.2438   1407.1488     99.0577     47.1378
    541.6296      8.7500     11.9639      9.0999      4.1861     87.8375      6.8563      6.6941      6.5072      6.3721      6.3445     77.1775    -10.3265   1393.6045     99.0148     47.3403
    541.7820      8.7500     11.9584      9.0967      4.1844     89.4045      7.0762      6.8285      6.6158      6.4633      6.4279     77.0351    -26.4513   1377.6284     98.9709     47.8430
    541.9344      8.7500     11.9530      9.1856      4.1828     89.3915      7.1760      6.8299      6.5956      6.4318      6.3894     76.9857    -32.8226   1371.5074     98.9262     46.7871
    542.0868      8.7500     11.9475      9.2837      4.1811     88.4626      7.1751      6.7503      6.5020      6.3327      6.2852     76.9982    -32.5045   1372.1074     98.8815     47.7273
    542.2392      8.7500     11.9421      9.3128      4.1794     88.0602      7.1588      6.6823      6.4254      6.2534      6.2020     77.0602    -32.7906   1372.0867     98.8373     50.9392
    542.3916      8.7500     11.9366      9.3044      4.1777     88.7325      7.1422      6.6442      6.3847      6.2120      6.1577     77.1955    -32.6427   1372.4823     98.7933     51.9948
    542.5440      8.7500     11.9311      9.2848      4.1760     89.5158      7.1275      6.6387      6.3814      6.2100      6.1535     77.4212    -28.8888   1376.4780     98.7489     49.6329
    542.6964      8.7500     11.9256      9.1866      4.1743     89.6110      7.1502      6.6897      6.4348      6.2647      6.2063     77.7160    -21.4125   1384.1597     98.7041     46.4196
    542.8488      8.7500     11.9199      9.0265      4.1724     88.4996      7.2024      6.7735      6.5194      6.3509      6.2905     78.0416    -16.6193   1389.0872     98.6593     45.8994
    543.0012      8.7500     11.9141      8.9458      4.1704     86.9537      7.2759      6.8662      6.6096      6.4429      6.3808     78.3911    -13.4412   1392.3599     98.6151     48.2788
    543.1536      8.7500     11.9080      8.9902      4.1680     85.7019      7.4036      6.9889      6.7236      6.5573      6.4930     78.7914     -6.6332   1399.2468     98.5716     50.0414
    543.3060      8.7500     11.9016      9.0529      4.1654     85.0440      7.5562      7.1181      6.8400      6.6728      6.6066     79.2829     -0.7450   1405.1844     98.5287     49.4500
    543.4584      8.7500     11.8951      9.0779      4.1627     84.7219      7.6209      7.1587      6.8728      6.7077      6.6416     79.8799     -2.7194   1403.2489     98.4862     48.1832
    543.6108      8.7500     11.8887      9.0694      4.1601     84.2544      7.5695      7.0890      6.8029      6.6441      6.5809     80.5099     -9.4848   1396.5630     98.4439     47.7667
    543.7632      8.7500     11.8823      9.0009      4.1575     84.5400      7.5736      7.0585      6.7679      6.6130      6.5530     81.0087    -19.4346   1386.7494     98.4017     48.1263
    543.9156      8.7500     11.8759      8.8597      4.1548     86.1707      7.7514      7.1651      6.8572      6.6998      6.6417     81.2344    -29.8217   1376.5642     98.3595     48.3018
    544.0680      8.7500     11.8692      8.7151      4.1520     88.8514      7.9730      7.2914      6.9620      6.7996      6.7440     81.1662    -30.5340   1376.1014     98.3164     49.3109
    544.2204      8.7500     11.8625      8.6293      4.1491     91.2686      8.0745      7.2992      6.9577      6.7927      6.7415     80.8978    -21.8506   1385.0132     98.2720     50.8980
    544.3728      8.7500     11.8559      8.5968      4.1462     92.8090      8.0314      7.1762      6.8345      6.6695      6.6239     80.5431    -12.6953   1394.3306     98.2263     51.4237
    544.5252      8.7500     11.8492      8.5868      4.1433     93.7033      7.8830      6.9649      6.6314      6.4676      6.4277     80.1459     -8.9799   1398.1490     98.1799     50.7595
    544.6776      8.7500     11.8426      8.5847      4.1405     94.8931      7.7004      6.7336      6.4101      6.2473      6.2121     79.6964     -7.7404   1399.4672     98.1331     50.1137
    544.8300      8.7500     11.8363      8.5847      4.1379     96.9997      7.5724      6.5626      6.2440      6.0795      6.0479     79.2154     -3.7404   1403.5312     98.0856     48.9577
    544.9824      8.7500     11.8301      8.5847      4.1355    100.0496      7.5398      6.4949      6.1732      6.0033      5.9737     78.7695      3.9515   1411.2322     98.0371     47.8108
    545.1348      8.7500     11.8239      8.5847      4.1331    102.3843      7.5579      6.5111      6.1815      6.0040      5.9753     78.4185     11.8341   1419.0319     97.9871     48.3859
    545.2872      8.7500     11.8175      8.5788      4.1306    103.1416      7.5148      6.5329      6.1985      6.0153      5.9870     78.1689     11.2101   1418.2675     97.9359     49.2444
    545.4396      8.7500     11.8112      8.5351      4.1280    102.0352      7.3685      6.5048      6.1730      5.9891      5.9609     78.0015     -1.2939   1405.6838     97.8843     49.4060
    545.5920      8.7500     11.8048      8.4384      4.1254     99.6688      7.2384      6.4799      6.1504      5.9679      5.9391     77.9215     -8.1863   1398.8401     97.8333     49.2009
    545.7444      8.7500     11.7985      8.3575      4.1229     97.2175      7.2780      6.5598      6.2206      6.0362      6.0049     77.9572     -0.8050   1406.2998     97.7835     49.1544
    545.8968      8.7500     11.7924      8.3577      4.1206     95.8509      7.5134      6.7725      6.4085      6.2172      6.1812     78.1043      4.4503   1411.5513     97.7349     49.5079
    546.0492      8.7500     11.7865      8.4023      4.1185     95.7844      7.7897      7.0097      6.6180      6.4208      6.3788     78.3259     -0.0498   1407.0099     97.6870     50.3555
    546.2016      8.7500     11.7807      8.4324      4.1165     96.3846      7.9197      7.1320      6.7271      6.5320      6.4842     78.5724     -4.4325   1402.6234     97.6391     49.9604
    546.3540      8.7500     11.7750      8.4502      4.1145     97.1693      7.9171      7.1430      6.7400      6.5537      6.5009     78.7698    -10.9362   1396.1641     97.5909     47.8315
    546.5064      8.7500     11.7693      8.4619      4.1126     97.6012      7.9248      7.1355      6.7380      6.5611      6.5035     78.9071    -24.5203   1382.7139     97.5423     46.5588
    546.6588      8.7500     11.7636      8.4569      4.1107     97.7349      8.0339      7.1682      6.7716      6.6014      6.5382     79.0508    -33.8731   1373.6136     97.4935     47.6283
    546.8112      8.7500     11.7580      8.4569      4.1088     98.0742      8.2167      7.2266      6.8278      6.6619      6.5929     79.2363    -30.2881   1377.4961     97.4446     48.5803
    546.9636      8.7500     11.7523      8.4981      4.1069     99.0845      8.3587      7.2564      6.8596      6.6982      6.6243     79.4523    -18.5111   1389.5164     97.3956     46.2397
    547.1160      8.7500     11.7466      8.5636      4.1050    100.5690      8.4204      7.2666      6.8776      6.7211      6.6436     79.7028    -12.6121   1395.5880     97.3460     43.1644
    547.2684      8.7500     11.7409      8.6059      4.1031    101.2914      8.4132      7.2777      6.9014      6.7503      6.6702     79.9485    -13.0828   1395.2737     97.2958     43.4232
    547.4208      8.7500     11.7352      8.6161      4.1012    100.8137      8.2829      7.2295      6.8757      6.7329      6.6530     80.1098    -13.6289   1394.8827     97.2451     45.0722
