~Version Information
 VERS.                2.00:   CWLS log ASCII Standard -VERSION 2.00
 WRAP.                  NO:   One line per frame      
~Well Information Block
#MNEM.UNIT                  Well Data                   Data Description
#----.----   ----------------------------------------   -------------------------------
 STRT.M                                      489.9660 : Starting Depth
 STOP.M                                      861.9744 : Ending Depth
 STEP.M                                        0.1524 : Level Spacing
 NULL.                                      -999.2500 : Absent Value
 COMP.       WINTERSHALL                              : Company
 WELL.       WIN.Nq.AF.WW-1                           : Well
 FLD .       AGUADA FEDERAL                           : Field
 LOC .                                                : Location
 CNTY.                                                : County
 STAT.                                                : State
 CTRY.       USA                                      : Country
 SRVC.       Baker Hughes                             : Service Company
 DATE.       24-Oct-2018                              : Log Date
 API .                                                : API Number
 UWI .                                                : Unique Well ID
~Curve Information Block
#MNEM    .UNIT        API Codes     Curve Description
#--------.--------   ------------   ---------------------------------------------------
 DEPT    .M          99 995 99  1 : Depth
 BIT     .IN         70 282  1  1 : Bit size
 BVOL    .M3         70 995 99  1 : Borehole volume
 CAL     .IN         70 280 99  1 : Caliper
 CVOL    .M3         70 995 99  1 : Cement volume
 DT24QI  .US/F       60 520 99  1 : Slowness over 24-inch interval
 M2R1    .OHMM        8 120 10  1 : Vertical 2-foot resolution matched resistivity, 10-inch DOI
 M2R2    .OHMM        8 120 20  1 : Vertical 2-foot resolution matched resistivity, 20-inch DOI
 M2R3    .OHMM        8 120 30  1 : Vertical 2-foot resolution matched resistivity, 30-inch DOI
 M2R6    .OHMM        8 120 60  1 : Vertical 2-foot resolution matched resistivity, 60-inch DOI
 M2R9    .OHMM        8 120 90  1 : Vertical 2-foot resolution matched resistivity, 90-inch DOI
 SP      .MV          1  10  1  1 : Spontaneous Potential
 TEN     .LBF        99 635 99  1 : Differential tension
 TTEN    .LBF        99 635 99  1 : Total tension
 TTQI    .MS         60 529 99  1 : Integrated traveltime from acoustic slowness
 GR      .GAPI       30 310  1  1 : Gamma ray
~Parameter Information Block
#MNEM.UNIT               Parameter Value                Parameter Description
#----.----   ----------------------------------------   -------------------------------
 LATI.DEG    0.0000                                   : Latitude
 LONG.DEG    0.0000                                   : Longitude
#  Curve Data
~A  DEPT        BIT         BVOL        CAL         CVOL        DT24QI      M2R1        M2R2        M2R3        M2R6        M2R9        SP          TEN         TTEN        TTQI        GR        
# ...
    515.5692      8.7500     13.0629      9.9944      4.6381     94.5929      6.1903      5.9523      5.7263      5.5345      5.4945     65.4153    -33.3690   1339.5601    106.6963     44.1812
    515.7216      8.7500     13.0570     10.0209      4.6360     94.0373      6.0721      5.8519      5.6311      5.4341      5.3939     65.3564    -34.5957   1338.5933    106.6490     45.8815
    515.8740      8.7500     13.0511     10.0305      4.6339     92.7139      6.0134      5.8012      5.5800      5.3794      5.3386     65.3828    -33.6649   1339.8154    106.6020     47.1110
    516.0264      8.7500     13.0454     10.0037      4.6319     91.0811      6.0225      5.8084      5.5829      5.3804      5.3383     65.4547    -28.2860   1345.4833    106.5557     46.5366
    516.1788      8.7500     13.0398      9.9405      4.6300     90.1396      6.0731      5.8470      5.6165      5.4153      5.3717     65.5179    -21.6746   1352.3368    106.5101     44.8853
    516.3312      8.7500     13.0342      9.8794      4.6283     90.5575      6.1291      5.8829      5.6499      5.4549      5.4099     65.5595    -21.8615   1352.3479    106.4650     43.8250
    516.4836      8.7500     13.0286      9.8288      4.6264     92.1335      6.1825      5.9106      5.6779      5.4931      5.4471     65.6017    -28.2870   1346.1344    106.4198     43.7718
    516.6360      8.7500     13.0229      9.6986      4.6245     93.6977      6.2638      5.9631      5.7310      5.5568      5.5098     65.6668    -30.8850   1343.7998    106.3737     44.0705
    516.7884      8.7500     13.0170      9.5105      4.6224     94.1908      6.4414      6.1091      5.8717      5.7030      5.6539     65.7879    -28.5029   1346.4758    106.3269     44.2887
    516.9408      8.7500     13.0106      9.4603      4.6198     93.5489      6.6980      6.3300      6.0802      5.9118      5.8597     66.0008    -30.3823   1344.8881    106.2798     45.3051
    517.0932      8.7500     13.0036      9.6014      4.6166     92.4324      6.8706      6.4560      6.1955      6.0286      5.9752     66.2718    -40.0960   1335.4879    106.2330     47.5371
    517.2456      8.7500     12.9962      9.7202      4.6130     91.4137      6.9060      6.4130      6.1461      5.9844      5.9326     66.5040    -44.9121   1331.0408    106.1868     49.6936
    517.3980      8.7500     12.9886      9.6807      4.6091     90.7912      7.0105      6.3808      6.0978      5.9360      5.8854     66.6391    -37.1809   1339.1340    106.1411     50.1671
    517.5504      8.7500     12.9809      9.6024      4.6052     90.5651      7.3536      6.5209      6.2003      6.0264      5.9745     66.6976    -25.6869   1350.8927    106.0957     49.4064
    517.7028      8.7500     12.9731      9.6362      4.6012     90.6492      7.8277      6.7726      6.3995      6.2043      6.1488     66.7369    -23.5622   1353.1937    106.0504     48.7530
    517.8552      8.7500     12.9653      9.8078      4.5973     91.1560      8.1687      6.9719      6.5535      6.3365      6.2778     66.7957    -27.8851   1349.0433    106.0051     48.3196
    518.0076      8.7500     12.9576     10.0669      4.5933     92.0419      8.0898      6.9254      6.4993      6.2733      6.2144     66.8738    -29.1255   1348.0045    105.9595     48.0576
    518.1600      8.7500     12.9499     10.3585      4.5894     93.1668      7.5027      6.5261      6.1447      5.9316      5.8775     66.9575    -25.4980   1351.8501    105.9135     47.7992
    518.3124      8.7500     12.9424     10.5173      4.5856     94.0232      6.8023      6.0114      5.6901      5.4993      5.4513     67.0522    -21.6883   1355.8776    105.8669     47.0078
    518.4648      8.7500     12.9349     10.3477      4.5819     94.1958      6.4357      5.7272      5.4396      5.2603      5.2152     67.1743    -21.6242   1356.1425    105.8199     46.9872
    518.6172      8.7500     12.9276      9.9408      4.5784     93.5995      6.4567      5.7369      5.4503      5.2685      5.2222     67.3260    -26.0713   1351.8884    105.7728     49.1975
    518.7696      8.7500     12.9205      9.5988      4.5751     92.2991      6.6261      5.8624      5.5623      5.3749      5.3256     67.4933    -30.5412   1347.6406    105.7260     51.6465
    518.9220      8.7500     12.9136      9.4314      4.5720     90.8041      6.7871      5.9843      5.6702      5.4813      5.4289     67.6648    -33.3573   1345.0828    105.6798     51.8423
    519.0744      8.7500     12.9066      9.3660      4.5687     89.6120      7.0300      6.1756      5.8438      5.6527      5.5956     67.8775    -37.3315   1341.3887    105.6344     50.3383
    519.2268      8.7500     12.8993      9.3588      4.5653     89.0842      7.3448      6.4346      6.0856      5.8914      5.8277     68.1738    -38.1364   1340.8828    105.5896     49.5978
    519.3792      8.7500     12.8920      9.3837      4.5618     89.0663      7.5261      6.6119      6.2649      6.0744      6.0043     68.5364    -28.0821   1351.2102    105.5451     49.9409
    519.5316      8.7500     12.8849      9.4093      4.5584     89.6146      7.4634      6.6269      6.3083      6.1308      6.0566     68.9359    -12.0915   1367.3842    105.5005     50.3483
    519.6840      8.7500     12.8777      9.4461      4.5551     90.7221      7.2807      6.5710      6.2937      6.1319      6.0549     69.3894      0.4308   1379.9869    105.4557     49.9563
    519.8364      8.7500     12.8704      9.5212      4.5515     91.9325      7.1660      6.5925      6.3533      6.2026      6.1212     69.9142      3.8966   1383.4575    105.4104     49.6568
    519.9888      8.7500     12.8627      9.6789      4.5476     92.1080      7.1917      6.7559      6.5479      6.4012      6.3123     70.5252     -2.5557   1376.9871    105.3644     49.2746
    520.1412      8.7500     12.8545      9.9025      4.5432     91.0487      7.2605      6.9770      6.8000      6.6539      6.5561     71.2217     -7.6851   1371.8793    105.3183     48.0475
    520.2936      8.7500     12.8460     10.0935      4.5384     89.6901      7.2276      7.1075      6.9671      6.8237      6.7199     71.9008     -2.5759   1377.0444    105.2728     47.3380
    520.4460      8.7500     12.8376     10.1960      4.5339     89.2157      7.0856      7.1111      7.0099      6.8720      6.7663     72.4214      3.7806   1383.4496    105.2280     48.3641
    520.5984      8.7500     12.8298     10.2489      4.5298     89.6232      6.9352      7.0674      7.0006      6.8672      6.7620     72.7639      1.2503   1380.9602    105.1834     49.3348
    520.7508      8.7500     12.8226     10.2980      4.5264     90.2848      6.8607      7.0467      7.0075      6.8755      6.7720     73.0060     -3.1567   1376.6121    105.1385     48.4188
    520.9032      8.7500     12.8157     10.3519      4.5233     91.0908      6.8131      7.0284      7.0100      6.8788      6.7791     73.1781     -3.9307   1375.9099    105.0934     46.5066
    521.0556      8.7500     12.8089     10.4024      4.5203     92.2772      6.7289      6.9489      6.9449      6.8176      6.7237     73.2663     -4.4994   1375.4167    105.0479     45.0567
    521.2080      8.7500     12.8021     10.4420      4.5173     93.2850      6.6038      6.8195      6.8261      6.7053      6.6185     73.3216     -3.0599   1376.9280    105.0017     45.2421
    521.3604      8.7500     12.7953     10.4679      4.5143     93.5545      6.5392      6.7575      6.7737      6.6593      6.5796     73.4631      0.3478   1380.3684    104.9551     47.4950
    521.5128      8.7500     12.7885     10.4747      4.5112     93.1828      6.6028      6.8373      6.8636      6.7546      6.6810     73.7319     -1.4117   1378.5955    104.9083     48.8998
    521.6652      8.7500     12.7816     10.4606      4.5081     93.0550      6.7011      6.9575      6.9939      6.8909      6.8238     74.0280     -9.3703   1370.6377    104.8617     47.3531
    521.8176      8.7500     12.7747     10.4551      4.5050     93.7213      6.6789      6.9450      6.9880      6.8937      6.8345     74.2270    -15.4474   1364.6316    104.8152     45.8467
